service_id,route_id,trip_id,block_id,sch_arr_time,stop_name,stop_id,stop_seq,direction_name
Sunday   ,  512,   15071,   85003, 5:32   ,Everett Station,evtst,          1,South
Sunday   ,  512,   15071,   85003, 5:40   ,South Everett Freeway Station,sefs,          2,South
Sunday   ,  512,   15071,   85003, 5:48   ,Ash Way Park & Ride,awypr,          3,South
Sunday   ,  512,   15071,   85003, 5:55   ,Lynnwood Transit Center,lynntc,          4,South
Sunday   ,  512,   15071,   85003, 5:59   ,Mountlake Terrace Freeway Station,mltfs,          5,South
Sunday   ,  512,   15071,   85003, 6:02   ,I-5 & NE 195th St,195i5,          6,South
Sunday   ,  512,   15071,   85003, 6:07   ,I-5 & NE 117th St,117i5,          7,South
Sunday   ,  512,   15071,   85003, 6:13   ,Northgate Station,nortc,          8,South
Sunday   ,  512,   15001,   85017,24:12   ,Stadium Station,9977,          1,North
Sunday   ,  512,   15001,   85017,24:14   ,4thAv/Jacksn,4jack,          2,North
Sunday   ,  512,   15001,   85017,24:19   ,4th Ave & Pine St,4unio,          3,North
Sunday   ,  512,   15001,   85017,24:23   ,Olive Way & Boren Ave,olvtr,          4,North
Sunday   ,  512,   15001,   85017,24:28   ,NE 45th Freeway Station,45i5,          5,North
Sunday   ,  512,   15001,   85017,24:36   ,Northgate Station,nortc,          6,North
Sunday   ,  512,   15001,   85017,24:39   ,I-5 & NE 117th St,117i5,          7,North
Sunday   ,  512,   15001,   85017,24:42   ,I-5 & NE 195th St,195i5,          8,North
Sunday   ,  512,   15001,   85017,24:43   ,Mountlake Terrace Freeway Station,mltfs,          9,North
Sunday   ,  512,   15001,   85017,24:48   ,Lynnwood Transit Center,lynntc,         10,North
Sunday   ,  512,   15001,   85017,24:55   ,Ash Way Park & Ride,awypr,         11,North
Sunday   ,  512,   15001,   85017,25:03   ,South Everett Freeway Station,sefs,         12,North
Sunday   ,  512,   15001,   85017,25:18   ,Everett Station,evtst,         13,North
Sunday   ,  512,   15070,   85002, 5:08   ,Everett Station,evtst,          1,South
Sunday   ,  512,   15070,   85002, 5:16   ,South Everett Freeway Station,sefs,          2,South
Sunday   ,  512,   15070,   85002, 5:24   ,Ash Way Park & Ride,awypr,          3,South
Sunday   ,  512,   15070,   85002, 5:31   ,Lynnwood Transit Center,lynntc,          4,South
Sunday   ,  512,   15070,   85002, 5:35   ,Mountlake Terrace Freeway Station,mltfs,          5,South
Sunday   ,  512,   15070,   85002, 5:38   ,I-5 & NE 195th St,195i5,          6,South
Sunday   ,  512,   15070,   85002, 5:43   ,I-5 & NE 117th St,117i5,          7,South
Sunday   ,  512,   15070,   85002, 5:49   ,Northgate Station,nortc,          8,South
Sunday   ,  512,   15067,   85014,23:29   ,Northgate Station,nortc,          1,North
Sunday   ,  512,   15067,   85014,23:32   ,I-5 & NE 117th St,117i5,          2,North
Sunday   ,  512,   15067,   85014,23:35   ,I-5 & NE 195th St,195i5,          3,North
Sunday   ,  512,   15067,   85014,23:36   ,Mountlake Terrace Freeway Station,mltfs,          4,North
Sunday   ,  512,   15067,   85014,23:41   ,Lynnwood Transit Center,lynntc,          5,North
Sunday   ,  512,   15067,   85014,23:48   ,Ash Way Park & Ride,awypr,          6,North
Sunday   ,  512,   15067,   85014,23:55   ,South Everett Freeway Station,sefs,          7,North
Sunday   ,  512,   15067,   85014,24:08   ,Everett Station,evtst,          8,North
Sunday   ,  512,   15068,   85016,24:03   ,Northgate Station,nortc,          1,North
Sunday   ,  512,   15068,   85016,24:06   ,I-5 & NE 117th St,117i5,          2,North
Sunday   ,  512,   15068,   85016,24:09   ,I-5 & NE 195th St,195i5,          3,North
Sunday   ,  512,   15068,   85016,24:10   ,Mountlake Terrace Freeway Station,mltfs,          4,North
Sunday   ,  512,   15068,   85016,24:15   ,Lynnwood Transit Center,lynntc,          5,North
Sunday   ,  512,   15068,   85016,24:22   ,Ash Way Park & Ride,awypr,          6,North
Sunday   ,  512,   15068,   85016,24:29   ,South Everett Freeway Station,sefs,          7,North
Sunday   ,  512,   15068,   85016,24:42   ,Everett Station,evtst,          8,North
Sunday   ,  512,   15074,   85002, 6:44   ,Everett Station,evtst,          1,South
Sunday   ,  512,   15074,   85002, 6:52   ,South Everett Freeway Station,sefs,          2,South
Sunday   ,  512,   15074,   85002, 7:00   ,Ash Way Park & Ride,awypr,          3,South
Sunday   ,  512,   15074,   85002, 7:07   ,Lynnwood Transit Center,lynntc,          4,South
Sunday   ,  512,   15074,   85002, 7:11   ,Mountlake Terrace Freeway Station,mltfs,          5,South
Sunday   ,  512,   15074,   85002, 7:14   ,I-5 & NE 195th St,195i5,          6,South
Sunday   ,  512,   15074,   85002, 7:19   ,I-5 & NE 117th St,117i5,          7,South
Sunday   ,  512,   15074,   85002, 7:25   ,Northgate Station,nortc,          8,South
Sunday   ,  512,   15069,   85001, 4:42   ,Everett Station,evtst,          1,South
Sunday   ,  512,   15069,   85001, 4:50   ,South Everett Freeway Station,sefs,          2,South
Sunday   ,  512,   15069,   85001, 4:58   ,Ash Way Park & Ride,awypr,          3,South
Sunday   ,  512,   15069,   85001, 5:05   ,Lynnwood Transit Center,lynntc,          4,South
Sunday   ,  512,   15069,   85001, 5:09   ,Mountlake Terrace Freeway Station,mltfs,          5,South
Sunday   ,  512,   15069,   85001, 5:12   ,I-5 & NE 195th St,195i5,          6,South
Sunday   ,  512,   15069,   85001, 5:17   ,I-5 & NE 117th St,117i5,          7,South
Sunday   ,  512,   15069,   85001, 5:23   ,Northgate Station,nortc,          8,South
Sunday   ,  512,   15072,   85004, 5:56   ,Everett Station,evtst,          1,South
Sunday   ,  512,   15072,   85004, 6:04   ,South Everett Freeway Station,sefs,          2,South
Sunday   ,  512,   15072,   85004, 6:12   ,Ash Way Park & Ride,awypr,          3,South
Sunday   ,  512,   15072,   85004, 6:19   ,Lynnwood Transit Center,lynntc,          4,South
Sunday   ,  512,   15072,   85004, 6:23   ,Mountlake Terrace Freeway Station,mltfs,          5,South
Sunday   ,  512,   15072,   85004, 6:26   ,I-5 & NE 195th St,195i5,          6,South
Sunday   ,  512,   15072,   85004, 6:31   ,I-5 & NE 117th St,117i5,          7,South
Sunday   ,  512,   15072,   85004, 6:37   ,Northgate Station,nortc,          8,South
Sunday   ,  512,   15002,   85018,24:42   ,Stadium Station,9977,          1,North
Sunday   ,  512,   15002,   85018,24:44   ,4thAv/Jacksn,4jack,          2,North
Sunday   ,  512,   15002,   85018,24:49   ,4th Ave & Pine St,4unio,          3,North
Sunday   ,  512,   15002,   85018,24:53   ,Olive Way & Boren Ave,olvtr,          4,North
Sunday   ,  512,   15002,   85018,24:58   ,NE 45th Freeway Station,45i5,          5,North
Sunday   ,  512,   15002,   85018,25:05   ,Northgate Station,nortc,          6,North
Sunday   ,  512,   15002,   85018,25:08   ,I-5 & NE 117th St,117i5,          7,North
Sunday   ,  512,   15002,   85018,25:11   ,I-5 & NE 195th St,195i5,          8,North
Sunday   ,  512,   15002,   85018,25:12   ,Mountlake Terrace Freeway Station,mltfs,          9,North
Sunday   ,  512,   15002,   85018,25:17   ,Lynnwood Transit Center,lynntc,         10,North
Sunday   ,  512,   15002,   85018,25:24   ,Ash Way Park & Ride,awypr,         11,North
Sunday   ,  512,   15002,   85018,25:32   ,South Everett Freeway Station,sefs,         12,North
Sunday   ,  512,   15002,   85018,25:47   ,Everett Station,evtst,         13,North
Sunday   ,  512,   15040,   85015,16:49   ,Northgate Station,nortc,          1,North
Sunday   ,  512,   15040,   85015,16:52   ,I-5 & NE 117th St,117i5,          2,North
Sunday   ,  512,   15040,   85015,16:55   ,I-5 & NE 195th St,195i5,          3,North
Sunday   ,  512,   15040,   85015,16:56   ,Mountlake Terrace Freeway Station,mltfs,          4,North
Sunday   ,  512,   15040,   85015,17:01   ,Lynnwood Transit Center,lynntc,          5,North
Sunday   ,  512,   15040,   85015,17:08   ,Ash Way Park & Ride,awypr,          6,North
Sunday   ,  512,   15040,   85015,17:16   ,South Everett Freeway Station,sefs,          7,North
Sunday   ,  512,   15040,   85015,17:34   ,Everett Station,evtst,          8,North
Sunday   ,  512,   15047,   85018,17:59   ,Northgate Station,nortc,          1,North
Sunday   ,  512,   15047,   85018,18:02   ,I-5 & NE 117th St,117i5,          2,North
Sunday   ,  512,   15047,   85018,18:05   ,I-5 & NE 195th St,195i5,          3,North
Sunday   ,  512,   15047,   85018,18:06   ,Mountlake Terrace Freeway Station,mltfs,          4,North
Sunday   ,  512,   15047,   85018,18:11   ,Lynnwood Transit Center,lynntc,          5,North
Sunday   ,  512,   15047,   85018,18:18   ,Ash Way Park & Ride,awypr,          6,North
Sunday   ,  512,   15047,   85018,18:26   ,South Everett Freeway Station,sefs,          7,North
Sunday   ,  512,   15047,   85018,18:44   ,Everett Station,evtst,          8,North
Sunday   ,  512,   15044,   85014,17:29   ,Northgate Station,nortc,          1,North
Sunday   ,  512,   15044,   85014,17:32   ,I-5 & NE 117th St,117i5,          2,North
Sunday   ,  512,   15044,   85014,17:35   ,I-5 & NE 195th St,195i5,          3,North
Sunday   ,  512,   15044,   85014,17:36   ,Mountlake Terrace Freeway Station,mltfs,          4,North
Sunday   ,  512,   15044,   85014,17:41   ,Lynnwood Transit Center,lynntc,          5,North
Sunday   ,  512,   15044,   85014,17:48   ,Ash Way Park & Ride,awypr,          6,North
Sunday   ,  512,   15044,   85014,17:56   ,South Everett Freeway Station,sefs,          7,North
Sunday   ,  512,   15044,   85014,18:14   ,Everett Station,evtst,          8,North
Sunday   ,  512,   15048,   85013,18:09   ,Northgate Station,nortc,          1,North
Sunday   ,  512,   15048,   85013,18:12   ,I-5 & NE 117th St,117i5,          2,North
Sunday   ,  512,   15048,   85013,18:15   ,I-5 & NE 195th St,195i5,          3,North
Sunday   ,  512,   15048,   85013,18:16   ,Mountlake Terrace Freeway Station,mltfs,          4,North
Sunday   ,  512,   15048,   85013,18:21   ,Lynnwood Transit Center,lynntc,          5,North
Sunday   ,  512,   15048,   85013,18:28   ,Ash Way Park & Ride,awypr,          6,North
Sunday   ,  512,   15048,   85013,18:36   ,South Everett Freeway Station,sefs,          7,North
Sunday   ,  512,   15048,   85013,18:53   ,Everett Station,evtst,          8,North
Sunday   ,  512,   15046,   85010,17:49   ,Northgate Station,nortc,          1,North
Sunday   ,  512,   15046,   85010,17:52   ,I-5 & NE 117th St,117i5,          2,North
Sunday   ,  512,   15046,   85010,17:55   ,I-5 & NE 195th St,195i5,          3,North
Sunday   ,  512,   15046,   85010,17:56   ,Mountlake Terrace Freeway Station,mltfs,          4,North
Sunday   ,  512,   15046,   85010,18:01   ,Lynnwood Transit Center,lynntc,          5,North
Sunday   ,  512,   15046,   85010,18:08   ,Ash Way Park & Ride,awypr,          6,North
Sunday   ,  512,   15046,   85010,18:16   ,South Everett Freeway Station,sefs,          7,North
Sunday   ,  512,   15046,   85010,18:34   ,Everett Station,evtst,          8,North
Sunday   ,  512,   15041,   85017,16:59   ,Northgate Station,nortc,          1,North
Sunday   ,  512,   15041,   85017,17:02   ,I-5 & NE 117th St,117i5,          2,North
Sunday   ,  512,   15041,   85017,17:05   ,I-5 & NE 195th St,195i5,          3,North
Sunday   ,  512,   15041,   85017,17:06   ,Mountlake Terrace Freeway Station,mltfs,          4,North
Sunday   ,  512,   15041,   85017,17:11   ,Lynnwood Transit Center,lynntc,          5,North
Sunday   ,  512,   15041,   85017,17:18   ,Ash Way Park & Ride,awypr,          6,North
Sunday   ,  512,   15041,   85017,17:26   ,South Everett Freeway Station,sefs,          7,North
Sunday   ,  512,   15041,   85017,17:44   ,Everett Station,evtst,          8,North
Sunday   ,  512,   15042,   85016,17:09   ,Northgate Station,nortc,          1,North
Sunday   ,  512,   15042,   85016,17:12   ,I-5 & NE 117th St,117i5,          2,North
Sunday   ,  512,   15042,   85016,17:15   ,I-5 & NE 195th St,195i5,          3,North
Sunday   ,  512,   15042,   85016,17:16   ,Mountlake Terrace Freeway Station,mltfs,          4,North
Sunday   ,  512,   15042,   85016,17:21   ,Lynnwood Transit Center,lynntc,          5,North
Sunday   ,  512,   15042,   85016,17:28   ,Ash Way Park & Ride,awypr,          6,North
Sunday   ,  512,   15042,   85016,17:36   ,South Everett Freeway Station,sefs,          7,North
Sunday   ,  512,   15042,   85016,17:54   ,Everett Station,evtst,          8,North
Sunday   ,  512,   15043,   85008,17:19   ,Northgate Station,nortc,          1,North
Sunday   ,  512,   15043,   85008,17:22   ,I-5 & NE 117th St,117i5,          2,North
Sunday   ,  512,   15043,   85008,17:25   ,I-5 & NE 195th St,195i5,          3,North
Sunday   ,  512,   15043,   85008,17:26   ,Mountlake Terrace Freeway Station,mltfs,          4,North
Sunday   ,  512,   15043,   85008,17:31   ,Lynnwood Transit Center,lynntc,          5,North
Sunday   ,  512,   15043,   85008,17:38   ,Ash Way Park & Ride,awypr,          6,North
Sunday   ,  512,   15043,   85008,17:46   ,South Everett Freeway Station,sefs,          7,North
Sunday   ,  512,   15043,   85008,18:04   ,Everett Station,evtst,          8,North
Sunday   ,  512,   15045,   85009,17:39   ,Northgate Station,nortc,          1,North
Sunday   ,  512,   15045,   85009,17:42   ,I-5 & NE 117th St,117i5,          2,North
Sunday   ,  512,   15045,   85009,17:45   ,I-5 & NE 195th St,195i5,          3,North
Sunday   ,  512,   15045,   85009,17:46   ,Mountlake Terrace Freeway Station,mltfs,          4,North
Sunday   ,  512,   15045,   85009,17:51   ,Lynnwood Transit Center,lynntc,          5,North
Sunday   ,  512,   15045,   85009,17:58   ,Ash Way Park & Ride,awypr,          6,North
Sunday   ,  512,   15045,   85009,18:06   ,South Everett Freeway Station,sefs,          7,North
Sunday   ,  512,   15045,   85009,18:24   ,Everett Station,evtst,          8,North
Sunday   ,  512,   15063,   85015,21:59   ,Northgate Station,nortc,          1,North
Sunday   ,  512,   15063,   85015,22:02   ,I-5 & NE 117th St,117i5,          2,North
Sunday   ,  512,   15063,   85015,22:05   ,I-5 & NE 195th St,195i5,          3,North
Sunday   ,  512,   15063,   85015,22:06   ,Mountlake Terrace Freeway Station,mltfs,          4,North
Sunday   ,  512,   15063,   85015,22:11   ,Lynnwood Transit Center,lynntc,          5,North
Sunday   ,  512,   15063,   85015,22:18   ,Ash Way Park & Ride,awypr,          6,North
Sunday   ,  512,   15063,   85015,22:26   ,South Everett Freeway Station,sefs,          7,North
Sunday   ,  512,   15063,   85015,22:39   ,Everett Station,evtst,          8,North
Sunday   ,  512,   15061,   85014,21:19   ,Northgate Station,nortc,          1,North
Sunday   ,  512,   15061,   85014,21:22   ,I-5 & NE 117th St,117i5,          2,North
Sunday   ,  512,   15061,   85014,21:25   ,I-5 & NE 195th St,195i5,          3,North
Sunday   ,  512,   15061,   85014,21:26   ,Mountlake Terrace Freeway Station,mltfs,          4,North
Sunday   ,  512,   15061,   85014,21:31   ,Lynnwood Transit Center,lynntc,          5,North
Sunday   ,  512,   15061,   85014,21:38   ,Ash Way Park & Ride,awypr,          6,North
Sunday   ,  512,   15061,   85014,21:46   ,South Everett Freeway Station,sefs,          7,North
Sunday   ,  512,   15061,   85014,21:59   ,Everett Station,evtst,          8,North
Sunday   ,  512,   15065,   85017,22:39   ,Northgate Station,nortc,          1,North
Sunday   ,  512,   15065,   85017,22:42   ,I-5 & NE 117th St,117i5,          2,North
Sunday   ,  512,   15065,   85017,22:45   ,I-5 & NE 195th St,195i5,          3,North
Sunday   ,  512,   15065,   85017,22:46   ,Mountlake Terrace Freeway Station,mltfs,          4,North
Sunday   ,  512,   15065,   85017,22:51   ,Lynnwood Transit Center,lynntc,          5,North
Sunday   ,  512,   15065,   85017,22:58   ,Ash Way Park & Ride,awypr,          6,North
Sunday   ,  512,   15065,   85017,23:05   ,South Everett Freeway Station,sefs,          7,North
Sunday   ,  512,   15065,   85017,23:18   ,Everett Station,evtst,          8,North
Sunday   ,  512,   15064,   85016,22:19   ,Northgate Station,nortc,          1,North
Sunday   ,  512,   15064,   85016,22:22   ,I-5 & NE 117th St,117i5,          2,North
Sunday   ,  512,   15064,   85016,22:25   ,I-5 & NE 195th St,195i5,          3,North
Sunday   ,  512,   15064,   85016,22:26   ,Mountlake Terrace Freeway Station,mltfs,          4,North
Sunday   ,  512,   15064,   85016,22:31   ,Lynnwood Transit Center,lynntc,          5,North
Sunday   ,  512,   15064,   85016,22:38   ,Ash Way Park & Ride,awypr,          6,North
Sunday   ,  512,   15064,   85016,22:46   ,South Everett Freeway Station,sefs,          7,North
Sunday   ,  512,   15064,   85016,22:59   ,Everett Station,evtst,          8,North
Sunday   ,  512,   15059,   85011,20:39   ,Northgate Station,nortc,          1,North
Sunday   ,  512,   15059,   85011,20:42   ,I-5 & NE 117th St,117i5,          2,North
Sunday   ,  512,   15059,   85011,20:45   ,I-5 & NE 195th St,195i5,          3,North
Sunday   ,  512,   15059,   85011,20:46   ,Mountlake Terrace Freeway Station,mltfs,          4,North
Sunday   ,  512,   15059,   85011,20:51   ,Lynnwood Transit Center,lynntc,          5,North
Sunday   ,  512,   15059,   85011,20:58   ,Ash Way Park & Ride,awypr,          6,North
Sunday   ,  512,   15059,   85011,21:06   ,South Everett Freeway Station,sefs,          7,North
Sunday   ,  512,   15059,   85011,21:20   ,Everett Station,evtst,          8,North
Sunday   ,  512,   15062,   85018,21:39   ,Northgate Station,nortc,          1,North
Sunday   ,  512,   15062,   85018,21:42   ,I-5 & NE 117th St,117i5,          2,North
Sunday   ,  512,   15062,   85018,21:45   ,I-5 & NE 195th St,195i5,          3,North
Sunday   ,  512,   15062,   85018,21:46   ,Mountlake Terrace Freeway Station,mltfs,          4,North
Sunday   ,  512,   15062,   85018,21:51   ,Lynnwood Transit Center,lynntc,          5,North
Sunday   ,  512,   15062,   85018,21:58   ,Ash Way Park & Ride,awypr,          6,North
Sunday   ,  512,   15062,   85018,22:06   ,South Everett Freeway Station,sefs,          7,North
Sunday   ,  512,   15062,   85018,22:19   ,Everett Station,evtst,          8,North
Sunday   ,  512,   15066,   85018,22:59   ,Northgate Station,nortc,          1,North
Sunday   ,  512,   15066,   85018,23:02   ,I-5 & NE 117th St,117i5,          2,North
Sunday   ,  512,   15066,   85018,23:05   ,I-5 & NE 195th St,195i5,          3,North
Sunday   ,  512,   15066,   85018,23:06   ,Mountlake Terrace Freeway Station,mltfs,          4,North
Sunday   ,  512,   15066,   85018,23:11   ,Lynnwood Transit Center,lynntc,          5,North
Sunday   ,  512,   15066,   85018,23:18   ,Ash Way Park & Ride,awypr,          6,North
Sunday   ,  512,   15066,   85018,23:25   ,South Everett Freeway Station,sefs,          7,North
Sunday   ,  512,   15066,   85018,23:38   ,Everett Station,evtst,          8,North
Sunday   ,  512,   15060,   85012,20:59   ,Northgate Station,nortc,          1,North
Sunday   ,  512,   15060,   85012,21:02   ,I-5 & NE 117th St,117i5,          2,North
Sunday   ,  512,   15060,   85012,21:05   ,I-5 & NE 195th St,195i5,          3,North
Sunday   ,  512,   15060,   85012,21:06   ,Mountlake Terrace Freeway Station,mltfs,          4,North
Sunday   ,  512,   15060,   85012,21:11   ,Lynnwood Transit Center,lynntc,          5,North
Sunday   ,  512,   15060,   85012,21:18   ,Ash Way Park & Ride,awypr,          6,North
Sunday   ,  512,   15060,   85012,21:26   ,South Everett Freeway Station,sefs,          7,North
Sunday   ,  512,   15060,   85012,21:39   ,Everett Station,evtst,          8,North
Sunday   ,  512,   15058,   85017,20:19   ,Northgate Station,nortc,          1,North
Sunday   ,  512,   15058,   85017,20:22   ,I-5 & NE 117th St,117i5,          2,North
Sunday   ,  512,   15058,   85017,20:25   ,I-5 & NE 195th St,195i5,          3,North
Sunday   ,  512,   15058,   85017,20:26   ,Mountlake Terrace Freeway Station,mltfs,          4,North
Sunday   ,  512,   15058,   85017,20:31   ,Lynnwood Transit Center,lynntc,          5,North
Sunday   ,  512,   15058,   85017,20:38   ,Ash Way Park & Ride,awypr,          6,North
Sunday   ,  512,   15058,   85017,20:46   ,South Everett Freeway Station,sefs,          7,North
Sunday   ,  512,   15058,   85017,21:00   ,Everett Station,evtst,          8,North
Sunday   ,,   85144,   85009,13:14   ,,hillav,          1,
Sunday   ,,   85144,   85009,13:21   ,Everett Station,evtst,          2,
Sunday   ,,   85090,   85007,13:31   ,Everett Station,evtst,          1,
Sunday   ,,   85090,   85007,13:33   ,,hillav,          2,
Sunday   ,,   85118,   85018,20:01   ,Everett Station,evtst,          1,
Sunday   ,,   85118,   85018,20:03   ,,hillav,          2,
Sunday   ,,   85121,   85017,21:00   ,Everett Station,evtst,          1,
Sunday   ,,   85121,   85017,21:02   ,,hillav,          2,
Sunday   ,,   85161,   85017,21:45   ,,hillav,          1,
Sunday   ,,   85161,   85017,21:52   ,Everett Station,evtst,          2,
Sunday   ,,   85080,   85004, 9:27   ,Everett Station,evtst,          1,
Sunday   ,,   85080,   85004, 9:29   ,,hillav,          2,
Sunday   ,,   85137,   85005, 9:37   ,,hillav,          1,
Sunday   ,,   85137,   85005, 9:44   ,Everett Station,evtst,          2,
Sunday   ,,   85104,   85007,17:04   ,Everett Station,evtst,          1,
Sunday   ,,   85104,   85007,17:06   ,,hillav,          2,
Sunday   ,,   85156,   85010,18:56   ,,hillav,          1,
Sunday   ,,   85156,   85010,19:03   ,Everett Station,evtst,          2,
Sunday   ,,   85195,   85008,17:07   ,Northgate Station,nortc,          1,
Sunday   ,,   85195,   85008,17:10   ,,3NG100,          2,
Sunday   ,,   85115,   85015,19:01   ,Everett Station,evtst,          1,
Sunday   ,,   85115,   85015,19:32   ,Northgate Station,nortc,          2,
Sunday   ,,   85030,   85006,16:36   ,,3NG100,          1,
Sunday   ,,   85030,   85006,16:39   ,Northgate Station,nortc,          2,
Sunday   ,,   85034,   85008,17:16   ,,3NG100,          1,
Sunday   ,,   85034,   85008,17:19   ,Northgate Station,nortc,          2,
Sunday   ,,   85026,   85010,15:46   ,,3NG100,          1,
Sunday   ,,   85026,   85010,15:49   ,Northgate Station,nortc,          2,
Sunday   ,,   85189,   85013,15:27   ,Northgate Station,nortc,          1,
Sunday   ,,   85189,   85013,15:30   ,,3NG100,          2,
Sunday   ,,   85107,   85015,17:34   ,Everett Station,evtst,          1,
Sunday   ,,   85107,   85015,18:09   ,Northgate Station,nortc,          2,
Sunday   ,,   85138,   85004,10:15   ,,hillav,          1,
Sunday   ,,   85138,   85004,10:22   ,Everett Station,evtst,          2,
Sunday   ,,   85095,   85012,15:12   ,Everett Station,evtst,          1,
Sunday   ,,   85095,   85012,15:14   ,,hillav,          2,
Sunday   ,,   85146,   85007,13:53   ,,hillav,          1,
Sunday   ,,   85146,   85007,14:00   ,Everett Station,evtst,          2,
Sunday   ,,   85180,   85009,12:27   ,Northgate Station,nortc,          1,
Sunday   ,,   85180,   85009,13:02   ,,hillav,          2,
Sunday   ,,   85111,   85009,18:24   ,Everett Station,evtst,          1,
Sunday   ,,   85111,   85009,18:26   ,,hillav,          2,
Sunday   ,,   85148,   85006,15:14   ,,hillav,          1,
Sunday   ,,   85148,   85006,15:21   ,Everett Station,evtst,          2,
Sunday   ,,   85112,   85010,18:34   ,Everett Station,evtst,          1,
Sunday   ,,   85112,   85010,18:36   ,,hillav,          2,
Sunday   ,,   85105,   85012,17:14   ,Everett Station,evtst,          1,
Sunday   ,,   85105,   85012,17:16   ,,hillav,          2,
Sunday   ,,   85154,   85012,17:56   ,,hillav,          1,
Sunday   ,,   85154,   85012,18:03   ,Everett Station,evtst,          2,
Sunday   ,,   85155,   85009,18:36   ,,hillav,          1,
Sunday   ,,   85155,   85009,18:43   ,Everett Station,evtst,          2,
Sunday   ,,   85149,   85012,15:29   ,,hillav,          1,
Sunday   ,,   85149,   85012,15:36   ,Everett Station,evtst,          2,
Sunday   ,,   85091,   85011,13:51   ,Everett Station,evtst,          1,
Sunday   ,,   85091,   85011,13:53   ,,hillav,          2,
Sunday   ,,   85079,   85005, 9:03   ,Everett Station,evtst,          1,
Sunday   ,,   85079,   85005, 9:05   ,,hillav,          2,
Sunday   ,,   85082,   85007,10:30   ,Everett Station,evtst,          1,
Sunday   ,,   85082,   85007,10:32   ,,hillav,          2,
Sunday   ,,   85147,   85011,14:13   ,,hillav,          1,
Sunday   ,,   85147,   85011,14:20   ,Everett Station,evtst,          2,
Sunday   ,,   85145,   85008,13:34   ,,hillav,          1,
Sunday   ,,   85145,   85008,13:41   ,Everett Station,evtst,          2,
Sunday   ,,   85094,   85006,14:51   ,Everett Station,evtst,          1,
Sunday   ,,   85094,   85006,14:53   ,,hillav,          2,
Sunday   ,,   85087,   85008,12:31   ,Everett Station,evtst,          1,
Sunday   ,,   85087,   85008,12:33   ,,hillav,          2,
Sunday   ,,   85140,   85007,10:55   ,,hillav,          1,
Sunday   ,,   85140,   85007,11:02   ,Everett Station,evtst,          2,
Sunday   ,,   85152,   85007,17:15   ,,hillav,          1,
Sunday   ,,   85152,   85007,17:22   ,Everett Station,evtst,          2,
Sunday   ,,   85158,   85018,20:39   ,,hillav,          1,
Sunday   ,,   85158,   85018,20:46   ,Everett Station,evtst,          2,
Sunday   ,  512,   15050,   85017,18:29   ,Northgate Station,nortc,          1,North
Sunday   ,  512,   15050,   85017,18:32   ,I-5 & NE 117th St,117i5,          2,North
Sunday   ,  512,   15050,   85017,18:35   ,I-5 & NE 195th St,195i5,          3,North
Sunday   ,  512,   15050,   85017,18:36   ,Mountlake Terrace Freeway Station,mltfs,          4,North
Sunday   ,  512,   15050,   85017,18:41   ,Lynnwood Transit Center,lynntc,          5,North
Sunday   ,  512,   15050,   85017,18:48   ,Ash Way Park & Ride,awypr,          6,North
Sunday   ,  512,   15050,   85017,18:56   ,South Everett Freeway Station,sefs,          7,North
Sunday   ,  512,   15050,   85017,19:11   ,Everett Station,evtst,          8,North
Sunday   ,  512,   15051,   85016,18:39   ,Northgate Station,nortc,          1,North
Sunday   ,  512,   15051,   85016,18:42   ,I-5 & NE 117th St,117i5,          2,North
Sunday   ,  512,   15051,   85016,18:45   ,I-5 & NE 195th St,195i5,          3,North
Sunday   ,  512,   15051,   85016,18:46   ,Mountlake Terrace Freeway Station,mltfs,          4,North
Sunday   ,  512,   15051,   85016,18:51   ,Lynnwood Transit Center,lynntc,          5,North
Sunday   ,  512,   15051,   85016,18:58   ,Ash Way Park & Ride,awypr,          6,North
Sunday   ,  512,   15051,   85016,19:06   ,South Everett Freeway Station,sefs,          7,North
Sunday   ,  512,   15051,   85016,19:21   ,Everett Station,evtst,          8,North
Sunday   ,  512,   15054,   85012,19:09   ,Northgate Station,nortc,          1,North
Sunday   ,  512,   15054,   85012,19:12   ,I-5 & NE 117th St,117i5,          2,North
Sunday   ,  512,   15054,   85012,19:15   ,I-5 & NE 195th St,195i5,          3,North
Sunday   ,  512,   15054,   85012,19:16   ,Mountlake Terrace Freeway Station,mltfs,          4,North
Sunday   ,  512,   15054,   85012,19:21   ,Lynnwood Transit Center,lynntc,          5,North
Sunday   ,  512,   15054,   85012,19:28   ,Ash Way Park & Ride,awypr,          6,North
Sunday   ,  512,   15054,   85012,19:36   ,South Everett Freeway Station,sefs,          7,North
Sunday   ,  512,   15054,   85012,19:51   ,Everett Station,evtst,          8,North
Sunday   ,  512,   15049,   85015,18:19   ,Northgate Station,nortc,          1,North
Sunday   ,  512,   15049,   85015,18:22   ,I-5 & NE 117th St,117i5,          2,North
Sunday   ,  512,   15049,   85015,18:25   ,I-5 & NE 195th St,195i5,          3,North
Sunday   ,  512,   15049,   85015,18:26   ,Mountlake Terrace Freeway Station,mltfs,          4,North
Sunday   ,  512,   15049,   85015,18:31   ,Lynnwood Transit Center,lynntc,          5,North
Sunday   ,  512,   15049,   85015,18:38   ,Ash Way Park & Ride,awypr,          6,North
Sunday   ,  512,   15049,   85015,18:46   ,South Everett Freeway Station,sefs,          7,North
Sunday   ,  512,   15049,   85015,19:01   ,Everett Station,evtst,          8,North
Sunday   ,  512,   15055,   85018,19:19   ,Northgate Station,nortc,          1,North
Sunday   ,  512,   15055,   85018,19:22   ,I-5 & NE 117th St,117i5,          2,North
Sunday   ,  512,   15055,   85018,19:25   ,I-5 & NE 195th St,195i5,          3,North
Sunday   ,  512,   15055,   85018,19:26   ,Mountlake Terrace Freeway Station,mltfs,          4,North
Sunday   ,  512,   15055,   85018,19:31   ,Lynnwood Transit Center,lynntc,          5,North
Sunday   ,  512,   15055,   85018,19:38   ,Ash Way Park & Ride,awypr,          6,North
Sunday   ,  512,   15055,   85018,19:46   ,South Everett Freeway Station,sefs,          7,North
Sunday   ,  512,   15055,   85018,20:01   ,Everett Station,evtst,          8,North
Sunday   ,  512,   15056,   85015,19:39   ,Northgate Station,nortc,          1,North
Sunday   ,  512,   15056,   85015,19:42   ,I-5 & NE 117th St,117i5,          2,North
Sunday   ,  512,   15056,   85015,19:45   ,I-5 & NE 195th St,195i5,          3,North
Sunday   ,  512,   15056,   85015,19:46   ,Mountlake Terrace Freeway Station,mltfs,          4,North
Sunday   ,  512,   15056,   85015,19:51   ,Lynnwood Transit Center,lynntc,          5,North
Sunday   ,  512,   15056,   85015,19:58   ,Ash Way Park & Ride,awypr,          6,North
Sunday   ,  512,   15056,   85015,20:06   ,South Everett Freeway Station,sefs,          7,North
Sunday   ,  512,   15056,   85015,20:20   ,Everett Station,evtst,          8,North
Sunday   ,  512,   15057,   85016,19:59   ,Northgate Station,nortc,          1,North
Sunday   ,  512,   15057,   85016,20:02   ,I-5 & NE 117th St,117i5,          2,North
Sunday   ,  512,   15057,   85016,20:05   ,I-5 & NE 195th St,195i5,          3,North
Sunday   ,  512,   15057,   85016,20:06   ,Mountlake Terrace Freeway Station,mltfs,          4,North
Sunday   ,  512,   15057,   85016,20:11   ,Lynnwood Transit Center,lynntc,          5,North
Sunday   ,  512,   15057,   85016,20:18   ,Ash Way Park & Ride,awypr,          6,North
Sunday   ,  512,   15057,   85016,20:26   ,South Everett Freeway Station,sefs,          7,North
Sunday   ,  512,   15057,   85016,20:40   ,Everett Station,evtst,          8,North
Sunday   ,  512,   15053,   85014,18:59   ,Northgate Station,nortc,          1,North
Sunday   ,  512,   15053,   85014,19:02   ,I-5 & NE 117th St,117i5,          2,North
Sunday   ,  512,   15053,   85014,19:05   ,I-5 & NE 195th St,195i5,          3,North
Sunday   ,  512,   15053,   85014,19:06   ,Mountlake Terrace Freeway Station,mltfs,          4,North
Sunday   ,  512,   15053,   85014,19:11   ,Lynnwood Transit Center,lynntc,          5,North
Sunday   ,  512,   15053,   85014,19:18   ,Ash Way Park & Ride,awypr,          6,North
Sunday   ,  512,   15053,   85014,19:26   ,South Everett Freeway Station,sefs,          7,North
Sunday   ,  512,   15053,   85014,19:41   ,Everett Station,evtst,          8,North
Sunday   ,  512,   15052,   85011,18:49   ,Northgate Station,nortc,          1,North
Sunday   ,  512,   15052,   85011,18:52   ,I-5 & NE 117th St,117i5,          2,North
Sunday   ,  512,   15052,   85011,18:55   ,I-5 & NE 195th St,195i5,          3,North
Sunday   ,  512,   15052,   85011,18:56   ,Mountlake Terrace Freeway Station,mltfs,          4,North
Sunday   ,  512,   15052,   85011,19:01   ,Lynnwood Transit Center,lynntc,          5,North
Sunday   ,  512,   15052,   85011,19:08   ,Ash Way Park & Ride,awypr,          6,North
Sunday   ,  512,   15052,   85011,19:16   ,South Everett Freeway Station,sefs,          7,North
Sunday   ,  512,   15052,   85011,19:31   ,Everett Station,evtst,          8,North
Sunday   ,  512,   15026,   85006,14:09   ,Northgate Station,nortc,          1,North
Sunday   ,  512,   15026,   85006,14:12   ,I-5 & NE 117th St,117i5,          2,North
Sunday   ,  512,   15026,   85006,14:15   ,I-5 & NE 195th St,195i5,          3,North
Sunday   ,  512,   15026,   85006,14:16   ,Mountlake Terrace Freeway Station,mltfs,          4,North
Sunday   ,  512,   15026,   85006,14:21   ,Lynnwood Transit Center,lynntc,          5,North
Sunday   ,  512,   15026,   85006,14:28   ,Ash Way Park & Ride,awypr,          6,North
Sunday   ,  512,   15026,   85006,14:36   ,South Everett Freeway Station,sefs,          7,North
Sunday   ,  512,   15026,   85006,14:51   ,Everett Station,evtst,          8,North
Sunday   ,  512,   15027,   85012,14:29   ,Northgate Station,nortc,          1,North
Sunday   ,  512,   15027,   85012,14:32   ,I-5 & NE 117th St,117i5,          2,North
Sunday   ,  512,   15027,   85012,14:35   ,I-5 & NE 195th St,195i5,          3,North
Sunday   ,  512,   15027,   85012,14:36   ,Mountlake Terrace Freeway Station,mltfs,          4,North
Sunday   ,  512,   15027,   85012,14:41   ,Lynnwood Transit Center,lynntc,          5,North
Sunday   ,  512,   15027,   85012,14:48   ,Ash Way Park & Ride,awypr,          6,North
Sunday   ,  512,   15027,   85012,14:56   ,South Everett Freeway Station,sefs,          7,North
Sunday   ,  512,   15027,   85012,15:12   ,Everett Station,evtst,          8,North
Sunday   ,  512,   15028,   85009,14:49   ,Northgate Station,nortc,          1,North
Sunday   ,  512,   15028,   85009,14:52   ,I-5 & NE 117th St,117i5,          2,North
Sunday   ,  512,   15028,   85009,14:55   ,I-5 & NE 195th St,195i5,          3,North
Sunday   ,  512,   15028,   85009,14:56   ,Mountlake Terrace Freeway Station,mltfs,          4,North
Sunday   ,  512,   15028,   85009,15:01   ,Lynnwood Transit Center,lynntc,          5,North
Sunday   ,  512,   15028,   85009,15:08   ,Ash Way Park & Ride,awypr,          6,North
Sunday   ,  512,   15028,   85009,15:16   ,South Everett Freeway Station,sefs,          7,North
Sunday   ,  512,   15028,   85009,15:32   ,Everett Station,evtst,          8,North
Sunday   ,  512,   15030,   85008,15:09   ,Northgate Station,nortc,          1,North
Sunday   ,  512,   15030,   85008,15:12   ,I-5 & NE 117th St,117i5,          2,North
Sunday   ,  512,   15030,   85008,15:15   ,I-5 & NE 195th St,195i5,          3,North
Sunday   ,  512,   15030,   85008,15:16   ,Mountlake Terrace Freeway Station,mltfs,          4,North
Sunday   ,  512,   15030,   85008,15:21   ,Lynnwood Transit Center,lynntc,          5,North
Sunday   ,  512,   15030,   85008,15:28   ,Ash Way Park & Ride,awypr,          6,North
Sunday   ,  512,   15030,   85008,15:36   ,South Everett Freeway Station,sefs,          7,North
Sunday   ,  512,   15030,   85008,15:52   ,Everett Station,evtst,          8,North
Sunday   ,  512,   15022,   85007,12:49   ,Northgate Station,nortc,          1,North
Sunday   ,  512,   15022,   85007,12:52   ,I-5 & NE 117th St,117i5,          2,North
Sunday   ,  512,   15022,   85007,12:55   ,I-5 & NE 195th St,195i5,          3,North
Sunday   ,  512,   15022,   85007,12:56   ,Mountlake Terrace Freeway Station,mltfs,          4,North
Sunday   ,  512,   15022,   85007,13:01   ,Lynnwood Transit Center,lynntc,          5,North
Sunday   ,  512,   15022,   85007,13:08   ,Ash Way Park & Ride,awypr,          6,North
Sunday   ,  512,   15022,   85007,13:16   ,South Everett Freeway Station,sefs,          7,North
Sunday   ,  512,   15022,   85007,13:31   ,Everett Station,evtst,          8,North
Sunday   ,  512,   15024,   85004,13:29   ,Northgate Station,nortc,          1,North
Sunday   ,  512,   15024,   85004,13:32   ,I-5 & NE 117th St,117i5,          2,North
Sunday   ,  512,   15024,   85004,13:35   ,I-5 & NE 195th St,195i5,          3,North
Sunday   ,  512,   15024,   85004,13:36   ,Mountlake Terrace Freeway Station,mltfs,          4,North
Sunday   ,  512,   15024,   85004,13:41   ,Lynnwood Transit Center,lynntc,          5,North
Sunday   ,  512,   15024,   85004,13:48   ,Ash Way Park & Ride,awypr,          6,North
Sunday   ,  512,   15024,   85004,13:56   ,South Everett Freeway Station,sefs,          7,North
Sunday   ,  512,   15024,   85004,14:11   ,Everett Station,evtst,          8,North
Sunday   ,  512,   15029,   85007,14:59   ,Northgate Station,nortc,          1,North
Sunday   ,  512,   15029,   85007,15:02   ,I-5 & NE 117th St,117i5,          2,North
Sunday   ,  512,   15029,   85007,15:05   ,I-5 & NE 195th St,195i5,          3,North
Sunday   ,  512,   15029,   85007,15:06   ,Mountlake Terrace Freeway Station,mltfs,          4,North
Sunday   ,  512,   15029,   85007,15:11   ,Lynnwood Transit Center,lynntc,          5,North
Sunday   ,  512,   15029,   85007,15:18   ,Ash Way Park & Ride,awypr,          6,North
Sunday   ,  512,   15029,   85007,15:26   ,South Everett Freeway Station,sefs,          7,North
Sunday   ,  512,   15029,   85007,15:42   ,Everett Station,evtst,          8,North
Sunday   ,  512,   15025,   85010,13:49   ,Northgate Station,nortc,          1,North
Sunday   ,  512,   15025,   85010,13:52   ,I-5 & NE 117th St,117i5,          2,North
Sunday   ,  512,   15025,   85010,13:55   ,I-5 & NE 195th St,195i5,          3,North
Sunday   ,  512,   15025,   85010,13:56   ,Mountlake Terrace Freeway Station,mltfs,          4,North
Sunday   ,  512,   15025,   85010,14:01   ,Lynnwood Transit Center,lynntc,          5,North
Sunday   ,  512,   15025,   85010,14:08   ,Ash Way Park & Ride,awypr,          6,North
Sunday   ,  512,   15025,   85010,14:16   ,South Everett Freeway Station,sefs,          7,North
Sunday   ,  512,   15025,   85010,14:31   ,Everett Station,evtst,          8,North
Sunday   ,  512,   15023,   85011,13:09   ,Northgate Station,nortc,          1,North
Sunday   ,  512,   15023,   85011,13:12   ,I-5 & NE 117th St,117i5,          2,North
Sunday   ,  512,   15023,   85011,13:15   ,I-5 & NE 195th St,195i5,          3,North
Sunday   ,  512,   15023,   85011,13:16   ,Mountlake Terrace Freeway Station,mltfs,          4,North
Sunday   ,  512,   15023,   85011,13:21   ,Lynnwood Transit Center,lynntc,          5,North
Sunday   ,  512,   15023,   85011,13:28   ,Ash Way Park & Ride,awypr,          6,North
Sunday   ,  512,   15023,   85011,13:36   ,South Everett Freeway Station,sefs,          7,North
Sunday   ,  512,   15023,   85011,13:51   ,Everett Station,evtst,          8,North
Sunday   ,  512,   15009,   85005, 8:23   ,Northgate Station,nortc,          1,North
Sunday   ,  512,   15009,   85005, 8:26   ,I-5 & NE 117th St,117i5,          2,North
Sunday   ,  512,   15009,   85005, 8:29   ,I-5 & NE 195th St,195i5,          3,North
Sunday   ,  512,   15009,   85005, 8:30   ,Mountlake Terrace Freeway Station,mltfs,          4,North
Sunday   ,  512,   15009,   85005, 8:35   ,Lynnwood Transit Center,lynntc,          5,North
Sunday   ,  512,   15009,   85005, 8:42   ,Ash Way Park & Ride,awypr,          6,North
Sunday   ,  512,   15009,   85005, 8:50   ,South Everett Freeway Station,sefs,          7,North
Sunday   ,  512,   15009,   85005, 9:03   ,Everett Station,evtst,          8,North
Sunday   ,  512,   15010,   85004, 8:47   ,Northgate Station,nortc,          1,North
Sunday   ,  512,   15010,   85004, 8:50   ,I-5 & NE 117th St,117i5,          2,North
Sunday   ,  512,   15010,   85004, 8:53   ,I-5 & NE 195th St,195i5,          3,North
Sunday   ,  512,   15010,   85004, 8:54   ,Mountlake Terrace Freeway Station,mltfs,          4,North
Sunday   ,  512,   15010,   85004, 8:59   ,Lynnwood Transit Center,lynntc,          5,North
Sunday   ,  512,   15010,   85004, 9:06   ,Ash Way Park & Ride,awypr,          6,North
Sunday   ,  512,   15010,   85004, 9:14   ,South Everett Freeway Station,sefs,          7,North
Sunday   ,  512,   15010,   85004, 9:27   ,Everett Station,evtst,          8,North
Sunday   ,  512,   15011,   85006, 9:09   ,Northgate Station,nortc,          1,North
Sunday   ,  512,   15011,   85006, 9:12   ,I-5 & NE 117th St,117i5,          2,North
Sunday   ,  512,   15011,   85006, 9:15   ,I-5 & NE 195th St,195i5,          3,North
Sunday   ,  512,   15011,   85006, 9:16   ,Mountlake Terrace Freeway Station,mltfs,          4,North
Sunday   ,  512,   15011,   85006, 9:21   ,Lynnwood Transit Center,lynntc,          5,North
Sunday   ,  512,   15011,   85006, 9:28   ,Ash Way Park & Ride,awypr,          6,North
Sunday   ,  512,   15011,   85006, 9:36   ,South Everett Freeway Station,sefs,          7,North
Sunday   ,  512,   15011,   85006, 9:50   ,Everett Station,evtst,          8,North
Sunday   ,  512,   15012,   85001, 9:29   ,Northgate Station,nortc,          1,North
Sunday   ,  512,   15012,   85001, 9:32   ,I-5 & NE 117th St,117i5,          2,North
Sunday   ,  512,   15012,   85001, 9:35   ,I-5 & NE 195th St,195i5,          3,North
Sunday   ,  512,   15012,   85001, 9:36   ,Mountlake Terrace Freeway Station,mltfs,          4,North
Sunday   ,  512,   15012,   85001, 9:41   ,Lynnwood Transit Center,lynntc,          5,North
Sunday   ,  512,   15012,   85001, 9:48   ,Ash Way Park & Ride,awypr,          6,North
Sunday   ,  512,   15012,   85001, 9:56   ,South Everett Freeway Station,sefs,          7,North
Sunday   ,  512,   15012,   85001,10:10   ,Everett Station,evtst,          8,North
Sunday   ,  512,   15004,   85003, 6:19   ,Northgate Station,nortc,          1,North
Sunday   ,  512,   15004,   85003, 6:22   ,I-5 & NE 117th St,117i5,          2,North
Sunday   ,  512,   15004,   85003, 6:25   ,I-5 & NE 195th St,195i5,          3,North
Sunday   ,  512,   15004,   85003, 6:26   ,Mountlake Terrace Freeway Station,mltfs,          4,North
Sunday   ,  512,   15004,   85003, 6:31   ,Lynnwood Transit Center,lynntc,          5,North
Sunday   ,  512,   15004,   85003, 6:38   ,Ash Way Park & Ride,awypr,          6,North
Sunday   ,  512,   15004,   85003, 6:45   ,South Everett Freeway Station,sefs,          7,North
Sunday   ,  512,   15004,   85003, 6:57   ,Everett Station,evtst,          8,North
Sunday   ,  512,   15005,   85004, 6:43   ,Northgate Station,nortc,          1,North
Sunday   ,  512,   15005,   85004, 6:46   ,I-5 & NE 117th St,117i5,          2,North
Sunday   ,  512,   15005,   85004, 6:49   ,I-5 & NE 195th St,195i5,          3,North
Sunday   ,  512,   15005,   85004, 6:50   ,Mountlake Terrace Freeway Station,mltfs,          4,North
Sunday   ,  512,   15005,   85004, 6:55   ,Lynnwood Transit Center,lynntc,          5,North
Sunday   ,  512,   15005,   85004, 7:02   ,Ash Way Park & Ride,awypr,          6,North
Sunday   ,  512,   15005,   85004, 7:09   ,South Everett Freeway Station,sefs,          7,North
Sunday   ,  512,   15005,   85004, 7:21   ,Everett Station,evtst,          8,North
Sunday   ,  512,   15006,   85001, 7:11   ,Northgate Station,nortc,          1,North
Sunday   ,  512,   15006,   85001, 7:14   ,I-5 & NE 117th St,117i5,          2,North
Sunday   ,  512,   15006,   85001, 7:17   ,I-5 & NE 195th St,195i5,          3,North
Sunday   ,  512,   15006,   85001, 7:18   ,Mountlake Terrace Freeway Station,mltfs,          4,North
Sunday   ,  512,   15006,   85001, 7:23   ,Lynnwood Transit Center,lynntc,          5,North
Sunday   ,  512,   15006,   85001, 7:30   ,Ash Way Park & Ride,awypr,          6,North
Sunday   ,  512,   15006,   85001, 7:37   ,South Everett Freeway Station,sefs,          7,North
Sunday   ,  512,   15006,   85001, 7:49   ,Everett Station,evtst,          8,North
Sunday   ,  512,   15007,   85002, 7:35   ,Northgate Station,nortc,          1,North
Sunday   ,  512,   15007,   85002, 7:38   ,I-5 & NE 117th St,117i5,          2,North
Sunday   ,  512,   15007,   85002, 7:41   ,I-5 & NE 195th St,195i5,          3,North
Sunday   ,  512,   15007,   85002, 7:42   ,Mountlake Terrace Freeway Station,mltfs,          4,North
Sunday   ,  512,   15007,   85002, 7:47   ,Lynnwood Transit Center,lynntc,          5,North
Sunday   ,  512,   15007,   85002, 7:54   ,Ash Way Park & Ride,awypr,          6,North
Sunday   ,  512,   15007,   85002, 8:01   ,South Everett Freeway Station,sefs,          7,North
Sunday   ,  512,   15007,   85002, 8:14   ,Everett Station,evtst,          8,North
Sunday   ,  512,   15008,   85003, 7:59   ,Northgate Station,nortc,          1,North
Sunday   ,  512,   15008,   85003, 8:02   ,I-5 & NE 117th St,117i5,          2,North
Sunday   ,  512,   15008,   85003, 8:05   ,I-5 & NE 195th St,195i5,          3,North
Sunday   ,  512,   15008,   85003, 8:06   ,Mountlake Terrace Freeway Station,mltfs,          4,North
Sunday   ,  512,   15008,   85003, 8:11   ,Lynnwood Transit Center,lynntc,          5,North
Sunday   ,  512,   15008,   85003, 8:18   ,Ash Way Park & Ride,awypr,          6,North
Sunday   ,  512,   15008,   85003, 8:26   ,South Everett Freeway Station,sefs,          7,North
Sunday   ,  512,   15008,   85003, 8:39   ,Everett Station,evtst,          8,North
Sunday   ,  512,   15083,   85005, 9:44   ,Everett Station,evtst,          1,South
Sunday   ,  512,   15083,   85005, 9:53   ,South Everett Freeway Station,sefs,          2,South
Sunday   ,  512,   15083,   85005,10:01   ,Ash Way Park & Ride,awypr,          3,South
Sunday   ,  512,   15083,   85005,10:08   ,Lynnwood Transit Center,lynntc,          4,South
Sunday   ,  512,   15083,   85005,10:12   ,Mountlake Terrace Freeway Station,mltfs,          5,South
Sunday   ,  512,   15083,   85005,10:15   ,I-5 & NE 195th St,195i5,          6,South
Sunday   ,  512,   15083,   85005,10:20   ,I-5 & NE 117th St,117i5,          7,South
Sunday   ,  512,   15083,   85005,10:27   ,Northgate Station,nortc,          8,South
Sunday   ,  512,   15073,   85001, 6:20   ,Everett Station,evtst,          1,South
Sunday   ,  512,   15073,   85001, 6:28   ,South Everett Freeway Station,sefs,          2,South
Sunday   ,  512,   15073,   85001, 6:36   ,Ash Way Park & Ride,awypr,          3,South
Sunday   ,  512,   15073,   85001, 6:43   ,Lynnwood Transit Center,lynntc,          4,South
Sunday   ,  512,   15073,   85001, 6:47   ,Mountlake Terrace Freeway Station,mltfs,          5,South
Sunday   ,  512,   15073,   85001, 6:50   ,I-5 & NE 195th St,195i5,          6,South
Sunday   ,  512,   15073,   85001, 6:55   ,I-5 & NE 117th St,117i5,          7,South
Sunday   ,  512,   15073,   85001, 7:01   ,Northgate Station,nortc,          8,South
Sunday   ,  512,   15086,   85001,10:42   ,Everett Station,evtst,          1,South
Sunday   ,  512,   15086,   85001,10:51   ,South Everett Freeway Station,sefs,          2,South
Sunday   ,  512,   15086,   85001,10:59   ,Ash Way Park & Ride,awypr,          3,South
Sunday   ,  512,   15086,   85001,11:06   ,Lynnwood Transit Center,lynntc,          4,South
Sunday   ,  512,   15086,   85001,11:10   ,Mountlake Terrace Freeway Station,mltfs,          5,South
Sunday   ,  512,   15086,   85001,11:13   ,I-5 & NE 195th St,195i5,          6,South
Sunday   ,  512,   15086,   85001,11:18   ,I-5 & NE 117th St,117i5,          7,South
Sunday   ,  512,   15086,   85001,11:27   ,Northgate Station,nortc,          8,South
Sunday   ,  512,   15087,   85007,11:02   ,Everett Station,evtst,          1,South
Sunday   ,  512,   15087,   85007,11:11   ,South Everett Freeway Station,sefs,          2,South
Sunday   ,  512,   15087,   85007,11:19   ,Ash Way Park & Ride,awypr,          3,South
Sunday   ,  512,   15087,   85007,11:26   ,Lynnwood Transit Center,lynntc,          4,South
Sunday   ,  512,   15087,   85007,11:30   ,Mountlake Terrace Freeway Station,mltfs,          5,South
Sunday   ,  512,   15087,   85007,11:33   ,I-5 & NE 195th St,195i5,          6,South
Sunday   ,  512,   15087,   85007,11:38   ,I-5 & NE 117th St,117i5,          7,South
Sunday   ,  512,   15087,   85007,11:47   ,Northgate Station,nortc,          8,South
Sunday   ,  512,   15089,   85009,11:41   ,Everett Station,evtst,          1,South
Sunday   ,  512,   15089,   85009,11:50   ,South Everett Freeway Station,sefs,          2,South
Sunday   ,  512,   15089,   85009,11:58   ,Ash Way Park & Ride,awypr,          3,South
Sunday   ,  512,   15089,   85009,12:05   ,Lynnwood Transit Center,lynntc,          4,South
Sunday   ,  512,   15089,   85009,12:10   ,Mountlake Terrace Freeway Station,mltfs,          5,South
Sunday   ,  512,   15089,   85009,12:13   ,I-5 & NE 195th St,195i5,          6,South
Sunday   ,  512,   15089,   85009,12:18   ,I-5 & NE 117th St,117i5,          7,South
Sunday   ,  512,   15089,   85009,12:27   ,Northgate Station,nortc,          8,South
Sunday   ,  512,   15090,   85003,12:01   ,Everett Station,evtst,          1,South
Sunday   ,  512,   15090,   85003,12:10   ,South Everett Freeway Station,sefs,          2,South
Sunday   ,  512,   15090,   85003,12:18   ,Ash Way Park & Ride,awypr,          3,South
Sunday   ,  512,   15090,   85003,12:25   ,Lynnwood Transit Center,lynntc,          4,South
Sunday   ,  512,   15090,   85003,12:30   ,Mountlake Terrace Freeway Station,mltfs,          5,South
Sunday   ,  512,   15090,   85003,12:33   ,I-5 & NE 195th St,195i5,          6,South
Sunday   ,  512,   15090,   85003,12:38   ,I-5 & NE 117th St,117i5,          7,South
Sunday   ,  512,   15090,   85003,12:47   ,Northgate Station,nortc,          8,South
Sunday   ,  512,   15091,   85004,12:21   ,Everett Station,evtst,          1,South
Sunday   ,  512,   15091,   85004,12:30   ,South Everett Freeway Station,sefs,          2,South
Sunday   ,  512,   15091,   85004,12:38   ,Ash Way Park & Ride,awypr,          3,South
Sunday   ,  512,   15091,   85004,12:45   ,Lynnwood Transit Center,lynntc,          4,South
Sunday   ,  512,   15091,   85004,12:50   ,Mountlake Terrace Freeway Station,mltfs,          5,South
Sunday   ,  512,   15091,   85004,12:53   ,I-5 & NE 195th St,195i5,          6,South
Sunday   ,  512,   15091,   85004,12:58   ,I-5 & NE 117th St,117i5,          7,South
Sunday   ,  512,   15091,   85004,13:07   ,Northgate Station,nortc,          8,South
Sunday   ,  512,   15075,   85003, 7:05   ,Everett Station,evtst,          1,South
Sunday   ,  512,   15075,   85003, 7:14   ,South Everett Freeway Station,sefs,          2,South
Sunday   ,  512,   15075,   85003, 7:22   ,Ash Way Park & Ride,awypr,          3,South
Sunday   ,  512,   15075,   85003, 7:29   ,Lynnwood Transit Center,lynntc,          4,South
Sunday   ,  512,   15075,   85003, 7:33   ,Mountlake Terrace Freeway Station,mltfs,          5,South
Sunday   ,  512,   15075,   85003, 7:36   ,I-5 & NE 195th St,195i5,          6,South
Sunday   ,  512,   15075,   85003, 7:41   ,I-5 & NE 117th St,117i5,          7,South
Sunday   ,  512,   15075,   85003, 7:47   ,Northgate Station,nortc,          8,South
Sunday   ,  512,   15080,   85007, 8:45   ,Everett Station,evtst,          1,South
Sunday   ,  512,   15080,   85007, 8:54   ,South Everett Freeway Station,sefs,          2,South
Sunday   ,  512,   15080,   85007, 9:02   ,Ash Way Park & Ride,awypr,          3,South
Sunday   ,  512,   15080,   85007, 9:09   ,Lynnwood Transit Center,lynntc,          4,South
Sunday   ,  512,   15080,   85007, 9:13   ,Mountlake Terrace Freeway Station,mltfs,          5,South
Sunday   ,  512,   15080,   85007, 9:16   ,I-5 & NE 195th St,195i5,          6,South
Sunday   ,  512,   15080,   85007, 9:21   ,I-5 & NE 117th St,117i5,          7,South
Sunday   ,  512,   15080,   85007, 9:27   ,Northgate Station,nortc,          8,South
Sunday   ,  512,   15079,   85006, 8:25   ,Everett Station,evtst,          1,South
Sunday   ,  512,   15079,   85006, 8:34   ,South Everett Freeway Station,sefs,          2,South
Sunday   ,  512,   15079,   85006, 8:42   ,Ash Way Park & Ride,awypr,          3,South
Sunday   ,  512,   15079,   85006, 8:49   ,Lynnwood Transit Center,lynntc,          4,South
Sunday   ,  512,   15079,   85006, 8:53   ,Mountlake Terrace Freeway Station,mltfs,          5,South
Sunday   ,  512,   15079,   85006, 8:56   ,I-5 & NE 195th St,195i5,          6,South
Sunday   ,  512,   15079,   85006, 9:01   ,I-5 & NE 117th St,117i5,          7,South
Sunday   ,  512,   15079,   85006, 9:07   ,Northgate Station,nortc,          8,South
Sunday   ,  512,   15084,   85006,10:04   ,Everett Station,evtst,          1,South
Sunday   ,  512,   15084,   85006,10:13   ,South Everett Freeway Station,sefs,          2,South
Sunday   ,  512,   15084,   85006,10:21   ,Ash Way Park & Ride,awypr,          3,South
Sunday   ,  512,   15084,   85006,10:28   ,Lynnwood Transit Center,lynntc,          4,South
Sunday   ,  512,   15084,   85006,10:32   ,Mountlake Terrace Freeway Station,mltfs,          5,South
Sunday   ,  512,   15084,   85006,10:35   ,I-5 & NE 195th St,195i5,          6,South
Sunday   ,  512,   15084,   85006,10:40   ,I-5 & NE 117th St,117i5,          7,South
Sunday   ,  512,   15084,   85006,10:47   ,Northgate Station,nortc,          8,South
Sunday   ,  512,   15088,   85002,11:21   ,Everett Station,evtst,          1,South
Sunday   ,  512,   15088,   85002,11:30   ,South Everett Freeway Station,sefs,          2,South
Sunday   ,  512,   15088,   85002,11:38   ,Ash Way Park & Ride,awypr,          3,South
Sunday   ,  512,   15088,   85002,11:45   ,Lynnwood Transit Center,lynntc,          4,South
Sunday   ,  512,   15088,   85002,11:50   ,Mountlake Terrace Freeway Station,mltfs,          5,South
Sunday   ,  512,   15088,   85002,11:53   ,I-5 & NE 195th St,195i5,          6,South
Sunday   ,  512,   15088,   85002,11:58   ,I-5 & NE 117th St,117i5,          7,South
Sunday   ,  512,   15088,   85002,12:07   ,Northgate Station,nortc,          8,South
Sunday   ,  512,   15082,   85003, 9:24   ,Everett Station,evtst,          1,South
Sunday   ,  512,   15082,   85003, 9:33   ,South Everett Freeway Station,sefs,          2,South
Sunday   ,  512,   15082,   85003, 9:41   ,Ash Way Park & Ride,awypr,          3,South
Sunday   ,  512,   15082,   85003, 9:48   ,Lynnwood Transit Center,lynntc,          4,South
Sunday   ,  512,   15082,   85003, 9:52   ,Mountlake Terrace Freeway Station,mltfs,          5,South
Sunday   ,  512,   15082,   85003, 9:55   ,I-5 & NE 195th St,195i5,          6,South
Sunday   ,  512,   15082,   85003,10:00   ,I-5 & NE 117th St,117i5,          7,South
Sunday   ,  512,   15082,   85003,10:07   ,Northgate Station,nortc,          8,South
Sunday   ,  512,   15077,   85004, 7:45   ,Everett Station,evtst,          1,South
Sunday   ,  512,   15077,   85004, 7:54   ,South Everett Freeway Station,sefs,          2,South
Sunday   ,  512,   15077,   85004, 8:02   ,Ash Way Park & Ride,awypr,          3,South
Sunday   ,  512,   15077,   85004, 8:09   ,Lynnwood Transit Center,lynntc,          4,South
Sunday   ,  512,   15077,   85004, 8:13   ,Mountlake Terrace Freeway Station,mltfs,          5,South
Sunday   ,  512,   15077,   85004, 8:16   ,I-5 & NE 195th St,195i5,          6,South
Sunday   ,  512,   15077,   85004, 8:21   ,I-5 & NE 117th St,117i5,          7,South
Sunday   ,  512,   15077,   85004, 8:27   ,Northgate Station,nortc,          8,South
Sunday   ,  512,   15078,   85001, 8:05   ,Everett Station,evtst,          1,South
Sunday   ,  512,   15078,   85001, 8:14   ,South Everett Freeway Station,sefs,          2,South
Sunday   ,  512,   15078,   85001, 8:22   ,Ash Way Park & Ride,awypr,          3,South
Sunday   ,  512,   15078,   85001, 8:29   ,Lynnwood Transit Center,lynntc,          4,South
Sunday   ,  512,   15078,   85001, 8:33   ,Mountlake Terrace Freeway Station,mltfs,          5,South
Sunday   ,  512,   15078,   85001, 8:36   ,I-5 & NE 195th St,195i5,          6,South
Sunday   ,  512,   15078,   85001, 8:41   ,I-5 & NE 117th St,117i5,          7,South
Sunday   ,  512,   15078,   85001, 8:47   ,Northgate Station,nortc,          8,South
Sunday   ,  512,   15076,   85005, 7:25   ,Everett Station,evtst,          1,South
Sunday   ,  512,   15076,   85005, 7:34   ,South Everett Freeway Station,sefs,          2,South
Sunday   ,  512,   15076,   85005, 7:42   ,Ash Way Park & Ride,awypr,          3,South
Sunday   ,  512,   15076,   85005, 7:49   ,Lynnwood Transit Center,lynntc,          4,South
Sunday   ,  512,   15076,   85005, 7:53   ,Mountlake Terrace Freeway Station,mltfs,          5,South
Sunday   ,  512,   15076,   85005, 7:56   ,I-5 & NE 195th St,195i5,          6,South
Sunday   ,  512,   15076,   85005, 8:01   ,I-5 & NE 117th St,117i5,          7,South
Sunday   ,  512,   15076,   85005, 8:07   ,Northgate Station,nortc,          8,South
Sunday   ,  512,   15081,   85002, 9:04   ,Everett Station,evtst,          1,South
Sunday   ,  512,   15081,   85002, 9:13   ,South Everett Freeway Station,sefs,          2,South
Sunday   ,  512,   15081,   85002, 9:21   ,Ash Way Park & Ride,awypr,          3,South
Sunday   ,  512,   15081,   85002, 9:28   ,Lynnwood Transit Center,lynntc,          4,South
Sunday   ,  512,   15081,   85002, 9:32   ,Mountlake Terrace Freeway Station,mltfs,          5,South
Sunday   ,  512,   15081,   85002, 9:35   ,I-5 & NE 195th St,195i5,          6,South
Sunday   ,  512,   15081,   85002, 9:40   ,I-5 & NE 117th St,117i5,          7,South
Sunday   ,  512,   15081,   85002, 9:47   ,Northgate Station,nortc,          8,South
Sunday   ,  512,   15085,   85004,10:22   ,Everett Station,evtst,          1,South
Sunday   ,  512,   15085,   85004,10:31   ,South Everett Freeway Station,sefs,          2,South
Sunday   ,  512,   15085,   85004,10:39   ,Ash Way Park & Ride,awypr,          3,South
Sunday   ,  512,   15085,   85004,10:46   ,Lynnwood Transit Center,lynntc,          4,South
Sunday   ,  512,   15085,   85004,10:50   ,Mountlake Terrace Freeway Station,mltfs,          5,South
Sunday   ,  512,   15085,   85004,10:53   ,I-5 & NE 195th St,195i5,          6,South
Sunday   ,  512,   15085,   85004,10:58   ,I-5 & NE 117th St,117i5,          7,South
Sunday   ,  512,   15085,   85004,11:07   ,Northgate Station,nortc,          8,South
Sunday   ,,   85004,   85002, 7:33   ,,3NG100,          1,
Sunday   ,,   85004,   85002, 7:35   ,Northgate Station,nortc,          2,
Sunday   ,,   85192,   85012,16:22   ,Northgate Station,nortc,          1,
Sunday   ,,   85192,   85012,16:26   ,,3NG100,          2,
Sunday   ,,   85114,   85013,18:53   ,Everett Station,evtst,          1,
Sunday   ,,   85114,   85013,19:08   ,Kasch Park Base,base2,          2,
Sunday   ,,   85041,   85016,18:36   ,,3NG100,          1,
Sunday   ,,   85041,   85016,18:39   ,Northgate Station,nortc,          2,
Sunday   ,,   85100,   85011,16:14   ,Everett Station,evtst,          1,
Sunday   ,,   85100,   85011,16:16   ,,hillav,          2,
Sunday   ,,   85101,   85013,16:24   ,Everett Station,evtst,          1,
Sunday   ,,   85101,   85013,16:27   ,,hillav,          2,
Sunday   ,,   85063,   85006, 8:08   ,Kasch Park Base,base2,          1,
Sunday   ,,   85063,   85006, 8:25   ,Everett Station,evtst,          2,
Sunday   ,,   85163,   85002, 5:49   ,Northgate Station,nortc,          1,
Sunday   ,,   85163,   85002, 5:52   ,,3NG100,          2,
Sunday   ,,   85166,   85002, 7:25   ,Northgate Station,nortc,          1,
Sunday   ,,   85166,   85002, 7:29   ,,3NG100,          2,
Sunday   ,,   85093,   85010,14:31   ,Everett Station,evtst,          1,
Sunday   ,,   85093,   85010,15:10   ,,3NG100,          2,
Sunday   ,,   85188,   85011,15:07   ,Northgate Station,nortc,          1,
Sunday   ,,   85188,   85011,15:10   ,,3NG100,          2,
Sunday   ,,   85157,   85014,20:19   ,,hillav,          1,
Sunday   ,,   85157,   85014,20:26   ,Everett Station,evtst,          2,
Sunday   ,,   85097,   85007,15:42   ,Everett Station,evtst,          1,
Sunday   ,,   85097,   85007,16:17   ,Northgate Station,nortc,          2,
Sunday   ,,   85164,   85003, 6:13   ,Northgate Station,nortc,          1,
Sunday   ,,   85164,   85003, 6:16   ,,3NG100,          2,
Sunday   ,,   85151,   85013,17:00   ,,hillav,          1,
Sunday   ,,   85151,   85013,17:07   ,Everett Station,evtst,          2,
Sunday   ,,   85025,   85013,15:36   ,,3NG100,          1,
Sunday   ,,   85025,   85013,15:39   ,Northgate Station,nortc,          2,
Sunday   ,,   85159,   85015,20:59   ,,hillav,          1,
Sunday   ,,   85159,   85015,21:06   ,Everett Station,evtst,          2,
Sunday   ,,   85160,   85016,21:19   ,,hillav,          1,
Sunday   ,,   85160,   85016,21:26   ,Everett Station,evtst,          2,
Sunday   ,,   85002,   85003, 6:18   ,,3NG100,          1,
Sunday   ,,   85002,   85003, 6:19   ,Northgate Station,nortc,          2,
Sunday   ,,   85153,   85011,17:36   ,,hillav,          1,
Sunday   ,,   85153,   85011,17:43   ,Everett Station,evtst,          2,
Sunday   ,,   85109,   85016,17:54   ,Everett Station,evtst,          1,
Sunday   ,,   85109,   85016,18:33   ,,3NG100,          2,
Sunday   ,,   85098,   85008,15:52   ,Everett Station,evtst,          1,
Sunday   ,,   85098,   85008,15:54   ,,hillav,          2,
Sunday   ,,   85150,   85008,16:14   ,,hillav,          1,
Sunday   ,,   85150,   85008,16:21   ,Everett Station,evtst,          2,
Sunday   ,,   85191,   85006,16:07   ,Northgate Station,nortc,          1,
Sunday   ,,   85191,   85006,16:10   ,,3NG100,          2,
Sunday   ,,   85099,   85015,16:03   ,Everett Station,evtst,          1,
Sunday   ,,   85099,   85015,16:38   ,,3NG100,          2,
Sunday   ,,   85070,   85013,14:23   ,Kasch Park Base,base2,          1,
Sunday   ,,   85070,   85013,14:40   ,Everett Station,evtst,          2,
Sunday   ,,   85024,   85011,15:26   ,,3NG100,          1,
Sunday   ,,   85024,   85011,15:29   ,Northgate Station,nortc,          2,
Sunday   ,,   85106,   85006,17:24   ,Everett Station,evtst,          1,
Sunday   ,,   85106,   85006,17:39   ,Kasch Park Base,base2,          2,
Sunday   ,,   85031,   85015,16:46   ,,3NG100,          1,
Sunday   ,,   85031,   85015,16:49   ,Northgate Station,nortc,          2,
Sunday   ,,   85198,   85013,17:52   ,Northgate Station,nortc,          1,
Sunday   ,,   85198,   85013,17:55   ,,3NG100,          2,
Sunday   ,,   85039,   85013,18:06   ,,3NG100,          1,
Sunday   ,,   85039,   85013,18:09   ,Northgate Station,nortc,          2,
Sunday   ,,   85119,   85015,20:20   ,Everett Station,evtst,          1,
Sunday   ,,   85119,   85015,20:22   ,,hillav,          2,
Sunday   ,,   85193,   85016,16:37   ,Northgate Station,nortc,          1,
Sunday   ,,   85193,   85016,16:40   ,,3NG100,          2,
Sunday   ,,   85033,   85016,17:06   ,,3NG100,          1,
Sunday   ,,   85033,   85016,17:09   ,Northgate Station,nortc,          2,
Sunday   ,,   85117,   85014,19:41   ,Everett Station,evtst,          1,
Sunday   ,,   85117,   85014,19:43   ,,hillav,          2,
Sunday   ,,   85120,   85016,20:40   ,Everett Station,evtst,          1,
Sunday   ,,   85120,   85016,20:42   ,,hillav,          2,
Sunday   ,,   85001,   85002, 5:54   ,,3NG100,          1,
Sunday   ,,   85001,   85002, 5:55   ,Northgate Station,nortc,          2,
Sunday   ,,   85173,   85003,10:07   ,Northgate Station,nortc,          1,
Sunday   ,,   85173,   85003,10:10   ,,3NG100,          2,
Sunday   ,,   85007,   85004, 8:44   ,,3NG100,          1,
Sunday   ,,   85007,   85004, 8:47   ,Northgate Station,nortc,          2,
Sunday   ,,   85013,   85006,11:06   ,,3NG100,          1,
Sunday   ,,   85013,   85006,11:09   ,Northgate Station,nortc,          2,
Sunday   ,,   85182,   85004,13:07   ,Northgate Station,nortc,          1,
Sunday   ,,   85182,   85004,13:10   ,,3NG100,          2,
Sunday   ,,   85011,   85003,10:26   ,,3NG100,          1,
Sunday   ,,   85011,   85003,10:29   ,Northgate Station,nortc,          2,
Sunday   ,,   85018,   85004,13:26   ,,3NG100,          1,
Sunday   ,,   85018,   85004,13:29   ,Northgate Station,nortc,          2,
Sunday   ,,   85168,   85005, 8:07   ,Northgate Station,nortc,          1,
Sunday   ,,   85168,   85005, 8:11   ,,3NG100,          2,
Sunday   ,,   85006,   85005, 8:20   ,,3NG100,          1,
Sunday   ,,   85006,   85005, 8:23   ,Northgate Station,nortc,          2,
Sunday   ,,   85174,   85005,10:27   ,Northgate Station,nortc,          1,
Sunday   ,,   85174,   85005,10:30   ,,3NG100,          2,
Sunday   ,,   85176,   85004,11:07   ,Northgate Station,nortc,          1,
Sunday   ,,   85176,   85004,11:10   ,,3NG100,          2,
Sunday   ,,   85014,   85004,11:26   ,,3NG100,          1,
Sunday   ,,   85014,   85004,11:29   ,Northgate Station,nortc,          2,
Sunday   ,,   85012,   85005,10:46   ,,3NG100,          1,
Sunday   ,,   85012,   85005,10:49   ,Northgate Station,nortc,          2,
Sunday   ,,   85167,   85003, 7:47   ,Northgate Station,nortc,          1,
Sunday   ,,   85167,   85003, 7:51   ,,3NG100,          2,
Sunday   ,,   85169,   85004, 8:27   ,Northgate Station,nortc,          1,
Sunday   ,,   85169,   85004, 8:31   ,,3NG100,          2,
Sunday   ,,   85184,   85006,13:47   ,Northgate Station,nortc,          1,
Sunday   ,,   85184,   85006,13:50   ,,3NG100,          2,
Sunday   ,,   85175,   85006,10:47   ,Northgate Station,nortc,          1,
Sunday   ,,   85175,   85006,10:50   ,,3NG100,          2,
Sunday   ,,   85005,   85003, 7:56   ,,3NG100,          1,
Sunday   ,,   85005,   85003, 7:59   ,Northgate Station,nortc,          2,
Sunday   ,,   85010,   85002,10:06   ,,3NG100,          1,
Sunday   ,,   85010,   85002,10:09   ,Northgate Station,nortc,          2,
Sunday   ,  512,   15036,   85009,16:09   ,Northgate Station,nortc,          1,North
Sunday   ,  512,   15036,   85009,16:12   ,I-5 & NE 117th St,117i5,          2,North
Sunday   ,  512,   15036,   85009,16:15   ,I-5 & NE 195th St,195i5,          3,North
Sunday   ,  512,   15036,   85009,16:16   ,Mountlake Terrace Freeway Station,mltfs,          4,North
Sunday   ,  512,   15036,   85009,16:21   ,Lynnwood Transit Center,lynntc,          5,North
Sunday   ,  512,   15036,   85009,16:28   ,Ash Way Park & Ride,awypr,          6,North
Sunday   ,  512,   15036,   85009,16:36   ,South Everett Freeway Station,sefs,          7,North
Sunday   ,  512,   15036,   85009,16:54   ,Everett Station,evtst,          8,North
Sunday   ,  512,   15037,   85007,16:19   ,Northgate Station,nortc,          1,North
Sunday   ,  512,   15037,   85007,16:22   ,I-5 & NE 117th St,117i5,          2,North
Sunday   ,  512,   15037,   85007,16:25   ,I-5 & NE 195th St,195i5,          3,North
Sunday   ,  512,   15037,   85007,16:26   ,Mountlake Terrace Freeway Station,mltfs,          4,North
Sunday   ,  512,   15037,   85007,16:31   ,Lynnwood Transit Center,lynntc,          5,North
Sunday   ,  512,   15037,   85007,16:38   ,Ash Way Park & Ride,awypr,          6,North
Sunday   ,  512,   15037,   85007,16:46   ,South Everett Freeway Station,sefs,          7,North
Sunday   ,  512,   15037,   85007,17:04   ,Everett Station,evtst,          8,North
Sunday   ,  512,   15039,   85006,16:39   ,Northgate Station,nortc,          1,North
Sunday   ,  512,   15039,   85006,16:42   ,I-5 & NE 117th St,117i5,          2,North
Sunday   ,  512,   15039,   85006,16:45   ,I-5 & NE 195th St,195i5,          3,North
Sunday   ,  512,   15039,   85006,16:46   ,Mountlake Terrace Freeway Station,mltfs,          4,North
Sunday   ,  512,   15039,   85006,16:51   ,Lynnwood Transit Center,lynntc,          5,North
Sunday   ,  512,   15039,   85006,16:58   ,Ash Way Park & Ride,awypr,          6,North
Sunday   ,  512,   15039,   85006,17:06   ,South Everett Freeway Station,sefs,          7,North
Sunday   ,  512,   15039,   85006,17:24   ,Everett Station,evtst,          8,North
Sunday   ,  512,   15038,   85012,16:29   ,Northgate Station,nortc,          1,North
Sunday   ,  512,   15038,   85012,16:32   ,I-5 & NE 117th St,117i5,          2,North
Sunday   ,  512,   15038,   85012,16:35   ,I-5 & NE 195th St,195i5,          3,North
Sunday   ,  512,   15038,   85012,16:36   ,Mountlake Terrace Freeway Station,mltfs,          4,North
Sunday   ,  512,   15038,   85012,16:41   ,Lynnwood Transit Center,lynntc,          5,North
Sunday   ,  512,   15038,   85012,16:48   ,Ash Way Park & Ride,awypr,          6,North
Sunday   ,  512,   15038,   85012,16:56   ,South Everett Freeway Station,sefs,          7,North
Sunday   ,  512,   15038,   85012,17:14   ,Everett Station,evtst,          8,North
Sunday   ,  512,   15032,   85011,15:29   ,Northgate Station,nortc,          1,North
Sunday   ,  512,   15032,   85011,15:32   ,I-5 & NE 117th St,117i5,          2,North
Sunday   ,  512,   15032,   85011,15:35   ,I-5 & NE 195th St,195i5,          3,North
Sunday   ,  512,   15032,   85011,15:36   ,Mountlake Terrace Freeway Station,mltfs,          4,North
Sunday   ,  512,   15032,   85011,15:41   ,Lynnwood Transit Center,lynntc,          5,North
Sunday   ,  512,   15032,   85011,15:48   ,Ash Way Park & Ride,awypr,          6,North
Sunday   ,  512,   15032,   85011,15:56   ,South Everett Freeway Station,sefs,          7,North
Sunday   ,  512,   15032,   85011,16:14   ,Everett Station,evtst,          8,North
Sunday   ,  512,   15031,   85015,15:19   ,Northgate Station,nortc,          1,North
Sunday   ,  512,   15031,   85015,15:22   ,I-5 & NE 117th St,117i5,          2,North
Sunday   ,  512,   15031,   85015,15:25   ,I-5 & NE 195th St,195i5,          3,North
Sunday   ,  512,   15031,   85015,15:26   ,Mountlake Terrace Freeway Station,mltfs,          4,North
Sunday   ,  512,   15031,   85015,15:31   ,Lynnwood Transit Center,lynntc,          5,North
Sunday   ,  512,   15031,   85015,15:38   ,Ash Way Park & Ride,awypr,          6,North
Sunday   ,  512,   15031,   85015,15:46   ,South Everett Freeway Station,sefs,          7,North
Sunday   ,  512,   15031,   85015,16:03   ,Everett Station,evtst,          8,North
Sunday   ,  512,   15033,   85013,15:39   ,Northgate Station,nortc,          1,North
Sunday   ,  512,   15033,   85013,15:42   ,I-5 & NE 117th St,117i5,          2,North
Sunday   ,  512,   15033,   85013,15:45   ,I-5 & NE 195th St,195i5,          3,North
Sunday   ,  512,   15033,   85013,15:46   ,Mountlake Terrace Freeway Station,mltfs,          4,North
Sunday   ,  512,   15033,   85013,15:51   ,Lynnwood Transit Center,lynntc,          5,North
Sunday   ,  512,   15033,   85013,15:58   ,Ash Way Park & Ride,awypr,          6,North
Sunday   ,  512,   15033,   85013,16:06   ,South Everett Freeway Station,sefs,          7,North
Sunday   ,  512,   15033,   85013,16:24   ,Everett Station,evtst,          8,North
Sunday   ,  512,   15034,   85010,15:49   ,Northgate Station,nortc,          1,North
Sunday   ,  512,   15034,   85010,15:52   ,I-5 & NE 117th St,117i5,          2,North
Sunday   ,  512,   15034,   85010,15:55   ,I-5 & NE 195th St,195i5,          3,North
Sunday   ,  512,   15034,   85010,15:56   ,Mountlake Terrace Freeway Station,mltfs,          4,North
Sunday   ,  512,   15034,   85010,16:01   ,Lynnwood Transit Center,lynntc,          5,North
Sunday   ,  512,   15034,   85010,16:08   ,Ash Way Park & Ride,awypr,          6,North
Sunday   ,  512,   15034,   85010,16:16   ,South Everett Freeway Station,sefs,          7,North
Sunday   ,  512,   15034,   85010,16:34   ,Everett Station,evtst,          8,North
Sunday   ,  512,   15035,   85014,15:59   ,Northgate Station,nortc,          1,North
Sunday   ,  512,   15035,   85014,16:02   ,I-5 & NE 117th St,117i5,          2,North
Sunday   ,  512,   15035,   85014,16:05   ,I-5 & NE 195th St,195i5,          3,North
Sunday   ,  512,   15035,   85014,16:06   ,Mountlake Terrace Freeway Station,mltfs,          4,North
Sunday   ,  512,   15035,   85014,16:11   ,Lynnwood Transit Center,lynntc,          5,North
Sunday   ,  512,   15035,   85014,16:18   ,Ash Way Park & Ride,awypr,          6,North
Sunday   ,  512,   15035,   85014,16:26   ,South Everett Freeway Station,sefs,          7,North
Sunday   ,  512,   15035,   85014,16:44   ,Everett Station,evtst,          8,North
Sunday   ,  512,   15018,   85004,11:29   ,Northgate Station,nortc,          1,North
Sunday   ,  512,   15018,   85004,11:32   ,I-5 & NE 117th St,117i5,          2,North
Sunday   ,  512,   15018,   85004,11:35   ,I-5 & NE 195th St,195i5,          3,North
Sunday   ,  512,   15018,   85004,11:36   ,Mountlake Terrace Freeway Station,mltfs,          4,North
Sunday   ,  512,   15018,   85004,11:41   ,Lynnwood Transit Center,lynntc,          5,North
Sunday   ,  512,   15018,   85004,11:48   ,Ash Way Park & Ride,awypr,          6,North
Sunday   ,  512,   15018,   85004,11:56   ,South Everett Freeway Station,sefs,          7,North
Sunday   ,  512,   15018,   85004,12:11   ,Everett Station,evtst,          8,North
Sunday   ,  512,   15020,   85001,12:09   ,Northgate Station,nortc,          1,North
Sunday   ,  512,   15020,   85001,12:12   ,I-5 & NE 117th St,117i5,          2,North
Sunday   ,  512,   15020,   85001,12:15   ,I-5 & NE 195th St,195i5,          3,North
Sunday   ,  512,   15020,   85001,12:16   ,Mountlake Terrace Freeway Station,mltfs,          4,North
Sunday   ,  512,   15020,   85001,12:21   ,Lynnwood Transit Center,lynntc,          5,North
Sunday   ,  512,   15020,   85001,12:28   ,Ash Way Park & Ride,awypr,          6,North
Sunday   ,  512,   15020,   85001,12:36   ,South Everett Freeway Station,sefs,          7,North
Sunday   ,  512,   15020,   85001,12:51   ,Everett Station,evtst,          8,North
Sunday   ,  512,   15019,   85008,11:49   ,Northgate Station,nortc,          1,North
Sunday   ,  512,   15019,   85008,11:52   ,I-5 & NE 117th St,117i5,          2,North
Sunday   ,  512,   15019,   85008,11:55   ,I-5 & NE 195th St,195i5,          3,North
Sunday   ,  512,   15019,   85008,11:56   ,Mountlake Terrace Freeway Station,mltfs,          4,North
Sunday   ,  512,   15019,   85008,12:01   ,Lynnwood Transit Center,lynntc,          5,North
Sunday   ,  512,   15019,   85008,12:08   ,Ash Way Park & Ride,awypr,          6,North
Sunday   ,  512,   15019,   85008,12:16   ,South Everett Freeway Station,sefs,          7,North
Sunday   ,  512,   15019,   85008,12:31   ,Everett Station,evtst,          8,North
Sunday   ,  512,   15021,   85002,12:29   ,Northgate Station,nortc,          1,North
Sunday   ,  512,   15021,   85002,12:32   ,I-5 & NE 117th St,117i5,          2,North
Sunday   ,  512,   15021,   85002,12:35   ,I-5 & NE 195th St,195i5,          3,North
Sunday   ,  512,   15021,   85002,12:36   ,Mountlake Terrace Freeway Station,mltfs,          4,North
Sunday   ,  512,   15021,   85002,12:41   ,Lynnwood Transit Center,lynntc,          5,North
Sunday   ,  512,   15021,   85002,12:48   ,Ash Way Park & Ride,awypr,          6,North
Sunday   ,  512,   15021,   85002,12:56   ,South Everett Freeway Station,sefs,          7,North
Sunday   ,  512,   15021,   85002,13:11   ,Everett Station,evtst,          8,North
Sunday   ,  512,   15013,   85007, 9:49   ,Northgate Station,nortc,          1,North
Sunday   ,  512,   15013,   85007, 9:52   ,I-5 & NE 117th St,117i5,          2,North
Sunday   ,  512,   15013,   85007, 9:55   ,I-5 & NE 195th St,195i5,          3,North
Sunday   ,  512,   15013,   85007, 9:56   ,Mountlake Terrace Freeway Station,mltfs,          4,North
Sunday   ,  512,   15013,   85007,10:01   ,Lynnwood Transit Center,lynntc,          5,North
Sunday   ,  512,   15013,   85007,10:08   ,Ash Way Park & Ride,awypr,          6,North
Sunday   ,  512,   15013,   85007,10:16   ,South Everett Freeway Station,sefs,          7,North
Sunday   ,  512,   15013,   85007,10:30   ,Everett Station,evtst,          8,North
Sunday   ,  512,   15014,   85002,10:09   ,Northgate Station,nortc,          1,North
Sunday   ,  512,   15014,   85002,10:12   ,I-5 & NE 117th St,117i5,          2,North
Sunday   ,  512,   15014,   85002,10:15   ,I-5 & NE 195th St,195i5,          3,North
Sunday   ,  512,   15014,   85002,10:16   ,Mountlake Terrace Freeway Station,mltfs,          4,North
Sunday   ,  512,   15014,   85002,10:21   ,Lynnwood Transit Center,lynntc,          5,North
Sunday   ,  512,   15014,   85002,10:28   ,Ash Way Park & Ride,awypr,          6,North
Sunday   ,  512,   15014,   85002,10:36   ,South Everett Freeway Station,sefs,          7,North
Sunday   ,  512,   15014,   85002,10:51   ,Everett Station,evtst,          8,North
Sunday   ,  512,   15015,   85003,10:29   ,Northgate Station,nortc,          1,North
Sunday   ,  512,   15015,   85003,10:32   ,I-5 & NE 117th St,117i5,          2,North
Sunday   ,  512,   15015,   85003,10:35   ,I-5 & NE 195th St,195i5,          3,North
Sunday   ,  512,   15015,   85003,10:36   ,Mountlake Terrace Freeway Station,mltfs,          4,North
Sunday   ,  512,   15015,   85003,10:41   ,Lynnwood Transit Center,lynntc,          5,North
Sunday   ,  512,   15015,   85003,10:48   ,Ash Way Park & Ride,awypr,          6,North
Sunday   ,  512,   15015,   85003,10:56   ,South Everett Freeway Station,sefs,          7,North
Sunday   ,  512,   15015,   85003,11:11   ,Everett Station,evtst,          8,North
Sunday   ,  512,   15017,   85006,11:09   ,Northgate Station,nortc,          1,North
Sunday   ,  512,   15017,   85006,11:12   ,I-5 & NE 117th St,117i5,          2,North
Sunday   ,  512,   15017,   85006,11:15   ,I-5 & NE 195th St,195i5,          3,North
Sunday   ,  512,   15017,   85006,11:16   ,Mountlake Terrace Freeway Station,mltfs,          4,North
Sunday   ,  512,   15017,   85006,11:21   ,Lynnwood Transit Center,lynntc,          5,North
Sunday   ,  512,   15017,   85006,11:28   ,Ash Way Park & Ride,awypr,          6,North
Sunday   ,  512,   15017,   85006,11:36   ,South Everett Freeway Station,sefs,          7,North
Sunday   ,  512,   15017,   85006,11:51   ,Everett Station,evtst,          8,North
Sunday   ,  512,   15016,   85005,10:49   ,Northgate Station,nortc,          1,North
Sunday   ,  512,   15016,   85005,10:52   ,I-5 & NE 117th St,117i5,          2,North
Sunday   ,  512,   15016,   85005,10:55   ,I-5 & NE 195th St,195i5,          3,North
Sunday   ,  512,   15016,   85005,10:56   ,Mountlake Terrace Freeway Station,mltfs,          4,North
Sunday   ,  512,   15016,   85005,11:01   ,Lynnwood Transit Center,lynntc,          5,North
Sunday   ,  512,   15016,   85005,11:08   ,Ash Way Park & Ride,awypr,          6,North
Sunday   ,  512,   15016,   85005,11:16   ,South Everett Freeway Station,sefs,          7,North
Sunday   ,  512,   15016,   85005,11:31   ,Everett Station,evtst,          8,North
Sunday   ,,   85047,   85017,20:16   ,,3NG100,          1,
Sunday   ,,   85047,   85017,20:19   ,Northgate Station,nortc,          2,
Sunday   ,,   85102,   85014,16:44   ,Everett Station,evtst,          1,
Sunday   ,,   85102,   85014,17:20   ,,3NG100,          2,
Sunday   ,,   85108,   85017,17:44   ,Everett Station,evtst,          1,
Sunday   ,,   85108,   85017,18:20   ,,3NG100,          2,
Sunday   ,,   85207,   85012,20:47   ,Northgate Station,nortc,          1,
Sunday   ,,   85207,   85012,20:50   ,,3NG100,          2,
Sunday   ,,   85043,   85014,18:56   ,,3NG100,          1,
Sunday   ,,   85043,   85014,18:59   ,Northgate Station,nortc,          2,
Sunday   ,,   85183,   85010,13:27   ,Northgate Station,nortc,          1,
Sunday   ,,   85183,   85010,13:30   ,,3NG100,          2,
Sunday   ,,   85206,   85011,20:27   ,Northgate Station,nortc,          1,
Sunday   ,,   85206,   85011,20:30   ,,3NG100,          2,
Sunday   ,,   85019,   85010,13:46   ,,3NG100,          1,
Sunday   ,,   85019,   85010,13:49   ,Northgate Station,nortc,          2,
Sunday   ,,   85035,   85014,17:26   ,,3NG100,          1,
Sunday   ,,   85035,   85014,17:29   ,Northgate Station,nortc,          2,
Sunday   ,,   85110,   85014,18:14   ,Everett Station,evtst,          1,
Sunday   ,,   85110,   85014,18:50   ,,3NG100,          2,
Sunday   ,,   85056,   85014,23:26   ,,3NG100,          1,
Sunday   ,,   85056,   85014,23:29   ,Northgate Station,nortc,          2,
Sunday   ,,   85040,   85017,18:27   ,,3NG100,          1,
Sunday   ,,   85040,   85017,18:29   ,Northgate Station,nortc,          2,
Sunday   ,,   85197,   85018,17:37   ,Northgate Station,nortc,          1,
Sunday   ,,   85197,   85018,17:41   ,,3NG100,          2,
Sunday   ,,   85052,   85015,21:56   ,,3NG100,          1,
Sunday   ,,   85052,   85015,21:59   ,Northgate Station,nortc,          2,
Sunday   ,,   85038,   85018,17:56   ,,3NG100,          1,
Sunday   ,,   85038,   85018,17:59   ,Northgate Station,nortc,          2,
Sunday   ,,   85171,   85007, 9:27   ,Northgate Station,nortc,          1,
Sunday   ,,   85171,   85007, 9:30   ,,3NG100,          2,
Sunday   ,,   85036,   85009,17:36   ,,3NG100,          1,
Sunday   ,,   85036,   85009,17:39   ,Northgate Station,nortc,          2,
Sunday   ,,   85050,   85014,21:16   ,,3NG100,          1,
Sunday   ,,   85050,   85014,21:19   ,Northgate Station,nortc,          2,
Sunday   ,,   85208,   85014,21:07   ,Northgate Station,nortc,          1,
Sunday   ,,   85208,   85014,21:10   ,,3NG100,          2,
Sunday   ,,   85213,   85014,23:03   ,Northgate Station,nortc,          1,
Sunday   ,,   85213,   85014,23:06   ,,3NG100,          2,
Sunday   ,,   85048,   85011,20:36   ,,3NG100,          1,
Sunday   ,,   85048,   85011,20:39   ,Northgate Station,nortc,          2,
Sunday   ,,   85210,   85015,21:47   ,Northgate Station,nortc,          1,
Sunday   ,,   85210,   85015,21:50   ,,3NG100,          2,
Sunday   ,,   85009,   85007, 9:46   ,,3NG100,          1,
Sunday   ,,   85009,   85007, 9:49   ,Northgate Station,nortc,          2,
Sunday   ,,   85190,   85014,15:47   ,Northgate Station,nortc,          1,
Sunday   ,,   85190,   85014,15:50   ,,3NG100,          2,
Sunday   ,,   85211,   85016,22:07   ,Northgate Station,nortc,          1,
Sunday   ,,   85211,   85016,22:10   ,,3NG100,          2,
Sunday   ,,   85020,   85006,14:06   ,,3NG100,          1,
Sunday   ,,   85020,   85006,14:09   ,Northgate Station,nortc,          2,
Sunday   ,,   85126,   85016,22:59   ,Everett Station,evtst,          1,
Sunday   ,,   85126,   85016,23:30   ,,3NG100,          2,
Sunday   ,,   85205,   85017,20:07   ,Northgate Station,nortc,          1,
Sunday   ,,   85205,   85017,20:10   ,,3NG100,          2,
Sunday   ,,   85127,   85017,23:18   ,Everett Station,evtst,          1,
Sunday   ,,   85127,   85017,23:55   ,Stadium Station,9977,          2,
Sunday   ,,   85113,   85018,18:44   ,Everett Station,evtst,          1,
Sunday   ,,   85113,   85018,19:15   ,,3NG100,          2,
Sunday   ,,   85045,   85018,19:16   ,,3NG100,          1,
Sunday   ,,   85045,   85018,19:19   ,Northgate Station,nortc,          2,
Sunday   ,,   85049,   85012,20:56   ,,3NG100,          1,
Sunday   ,,   85049,   85012,20:59   ,Northgate Station,nortc,          2,
Sunday   ,,   85209,   85018,21:27   ,Northgate Station,nortc,          1,
Sunday   ,,   85209,   85018,21:30   ,,3NG100,          2,
Sunday   ,,   85027,   85014,15:56   ,,3NG100,          1,
Sunday   ,,   85027,   85014,15:59   ,Northgate Station,nortc,          2,
Sunday   ,,   85057,   85016,24:00   ,,3NG100,          1,
Sunday   ,,   85057,   85016,24:03   ,Northgate Station,nortc,          2,
Sunday   ,,   85103,   85009,16:54   ,Everett Station,evtst,          1,
Sunday   ,,   85103,   85009,17:25   ,,3NG100,          2,
Sunday   ,,   85053,   85016,22:16   ,,3NG100,          1,
Sunday   ,,   85053,   85016,22:19   ,Northgate Station,nortc,          2,
Sunday   ,  512,   15122,   85014,22:22   ,Everett Station,evtst,          1,South
Sunday   ,  512,   15122,   85014,22:30   ,South Everett Freeway Station,sefs,          2,South
Sunday   ,  512,   15122,   85014,22:38   ,Ash Way Park & Ride,awypr,          3,South
Sunday   ,  512,   15122,   85014,22:45   ,Lynnwood Transit Center,lynntc,          4,South
Sunday   ,  512,   15122,   85014,22:49   ,Mountlake Terrace Freeway Station,mltfs,          5,South
Sunday   ,  512,   15122,   85014,22:52   ,I-5 & NE 195th St,195i5,          6,South
Sunday   ,  512,   15122,   85014,22:57   ,I-5 & NE 117th St,117i5,          7,South
Sunday   ,  512,   15122,   85014,23:03   ,Northgate Station,nortc,          8,South
Sunday   ,  512,   15118,   85018,20:46   ,Everett Station,evtst,          1,South
Sunday   ,  512,   15118,   85018,20:54   ,South Everett Freeway Station,sefs,          2,South
Sunday   ,  512,   15118,   85018,21:02   ,Ash Way Park & Ride,awypr,          3,South
Sunday   ,  512,   15118,   85018,21:09   ,Lynnwood Transit Center,lynntc,          4,South
Sunday   ,  512,   15118,   85018,21:13   ,Mountlake Terrace Freeway Station,mltfs,          5,South
Sunday   ,  512,   15118,   85018,21:16   ,I-5 & NE 195th St,195i5,          6,South
Sunday   ,  512,   15118,   85018,21:21   ,I-5 & NE 117th St,117i5,          7,South
Sunday   ,  512,   15118,   85018,21:27   ,Northgate Station,nortc,          8,South
Sunday   ,  512,   15113,   85010,19:03   ,Everett Station,evtst,          1,South
Sunday   ,  512,   15113,   85010,19:12   ,South Everett Freeway Station,sefs,          2,South
Sunday   ,  512,   15113,   85010,19:20   ,Ash Way Park & Ride,awypr,          3,South
Sunday   ,  512,   15113,   85010,19:27   ,Lynnwood Transit Center,lynntc,          4,South
Sunday   ,  512,   15113,   85010,19:31   ,Mountlake Terrace Freeway Station,mltfs,          5,South
Sunday   ,  512,   15113,   85010,19:34   ,I-5 & NE 195th St,195i5,          6,South
Sunday   ,  512,   15113,   85010,19:39   ,I-5 & NE 117th St,117i5,          7,South
Sunday   ,  512,   15113,   85010,19:47   ,Northgate Station,nortc,          8,South
Sunday   ,  512,   15117,   85014,20:26   ,Everett Station,evtst,          1,South
Sunday   ,  512,   15117,   85014,20:34   ,South Everett Freeway Station,sefs,          2,South
Sunday   ,  512,   15117,   85014,20:42   ,Ash Way Park & Ride,awypr,          3,South
Sunday   ,  512,   15117,   85014,20:49   ,Lynnwood Transit Center,lynntc,          4,South
Sunday   ,  512,   15117,   85014,20:53   ,Mountlake Terrace Freeway Station,mltfs,          5,South
Sunday   ,  512,   15117,   85014,20:56   ,I-5 & NE 195th St,195i5,          6,South
Sunday   ,  512,   15117,   85014,21:01   ,I-5 & NE 117th St,117i5,          7,South
Sunday   ,  512,   15117,   85014,21:07   ,Northgate Station,nortc,          8,South
Sunday   ,  512,   15106,   85018,16:52   ,Everett Station,evtst,          1,South
Sunday   ,  512,   15106,   85018,17:01   ,South Everett Freeway Station,sefs,          2,South
Sunday   ,  512,   15106,   85018,17:09   ,Ash Way Park & Ride,awypr,          3,South
Sunday   ,  512,   15106,   85018,17:16   ,Lynnwood Transit Center,lynntc,          4,South
Sunday   ,  512,   15106,   85018,17:20   ,Mountlake Terrace Freeway Station,mltfs,          5,South
Sunday   ,  512,   15106,   85018,17:23   ,I-5 & NE 195th St,195i5,          6,South
Sunday   ,  512,   15106,   85018,17:28   ,I-5 & NE 117th St,117i5,          7,South
Sunday   ,  512,   15106,   85018,17:37   ,Northgate Station,nortc,          8,South
Sunday   ,  512,   15120,   85016,21:26   ,Everett Station,evtst,          1,South
Sunday   ,  512,   15120,   85016,21:34   ,South Everett Freeway Station,sefs,          2,South
Sunday   ,  512,   15120,   85016,21:42   ,Ash Way Park & Ride,awypr,          3,South
Sunday   ,  512,   15120,   85016,21:49   ,Lynnwood Transit Center,lynntc,          4,South
Sunday   ,  512,   15120,   85016,21:53   ,Mountlake Terrace Freeway Station,mltfs,          5,South
Sunday   ,  512,   15120,   85016,21:56   ,I-5 & NE 195th St,195i5,          6,South
Sunday   ,  512,   15120,   85016,22:01   ,I-5 & NE 117th St,117i5,          7,South
Sunday   ,  512,   15120,   85016,22:07   ,Northgate Station,nortc,          8,South
Sunday   ,,   85165,   85001, 7:01   ,Northgate Station,nortc,          1,
Sunday   ,,   85165,   85001, 7:05   ,,3NG100,          2,
Sunday   ,,   85170,   85001, 8:47   ,Northgate Station,nortc,          1,
Sunday   ,,   85170,   85001, 8:51   ,,3NG100,          2,
Sunday   ,,   85008,   85001, 9:26   ,,3NG100,          1,
Sunday   ,,   85008,   85001, 9:29   ,Northgate Station,nortc,          2,
Sunday   ,  512,   15112,   85009,18:43   ,Everett Station,evtst,          1,South
Sunday   ,  512,   15112,   85009,18:52   ,South Everett Freeway Station,sefs,          2,South
Sunday   ,  512,   15112,   85009,19:00   ,Ash Way Park & Ride,awypr,          3,South
Sunday   ,  512,   15112,   85009,19:07   ,Lynnwood Transit Center,lynntc,          4,South
Sunday   ,  512,   15112,   85009,19:11   ,Mountlake Terrace Freeway Station,mltfs,          5,South
Sunday   ,  512,   15112,   85009,19:14   ,I-5 & NE 195th St,195i5,          6,South
Sunday   ,  512,   15112,   85009,19:19   ,I-5 & NE 117th St,117i5,          7,South
Sunday   ,  512,   15112,   85009,19:27   ,Northgate Station,nortc,          8,South
Sunday   ,,   85172,   85002, 9:47   ,Northgate Station,nortc,          1,
Sunday   ,,   85172,   85002, 9:50   ,,3NG100,          2,
Sunday   ,  512,   15119,   85015,21:06   ,Everett Station,evtst,          1,South
Sunday   ,  512,   15119,   85015,21:14   ,South Everett Freeway Station,sefs,          2,South
Sunday   ,  512,   15119,   85015,21:22   ,Ash Way Park & Ride,awypr,          3,South
Sunday   ,  512,   15119,   85015,21:29   ,Lynnwood Transit Center,lynntc,          4,South
Sunday   ,  512,   15119,   85015,21:33   ,Mountlake Terrace Freeway Station,mltfs,          5,South
Sunday   ,  512,   15119,   85015,21:36   ,I-5 & NE 195th St,195i5,          6,South
Sunday   ,  512,   15119,   85015,21:41   ,I-5 & NE 117th St,117i5,          7,South
Sunday   ,  512,   15119,   85015,21:47   ,Northgate Station,nortc,          8,South
Sunday   ,  512,   15116,   85012,20:05   ,Everett Station,evtst,          1,South
Sunday   ,  512,   15116,   85012,20:13   ,South Everett Freeway Station,sefs,          2,South
Sunday   ,  512,   15116,   85012,20:21   ,Ash Way Park & Ride,awypr,          3,South
Sunday   ,  512,   15116,   85012,20:28   ,Lynnwood Transit Center,lynntc,          4,South
Sunday   ,  512,   15116,   85012,20:32   ,Mountlake Terrace Freeway Station,mltfs,          5,South
Sunday   ,  512,   15116,   85012,20:35   ,I-5 & NE 195th St,195i5,          6,South
Sunday   ,  512,   15116,   85012,20:40   ,I-5 & NE 117th St,117i5,          7,South
Sunday   ,  512,   15116,   85012,20:47   ,Northgate Station,nortc,          8,South
Sunday   ,  512,   15102,   85016,15:51   ,Everett Station,evtst,          1,South
Sunday   ,  512,   15102,   85016,16:00   ,South Everett Freeway Station,sefs,          2,South
Sunday   ,  512,   15102,   85016,16:08   ,Ash Way Park & Ride,awypr,          3,South
Sunday   ,  512,   15102,   85016,16:15   ,Lynnwood Transit Center,lynntc,          4,South
Sunday   ,  512,   15102,   85016,16:19   ,Mountlake Terrace Freeway Station,mltfs,          5,South
Sunday   ,  512,   15102,   85016,16:22   ,I-5 & NE 195th St,195i5,          6,South
Sunday   ,  512,   15102,   85016,16:27   ,I-5 & NE 117th St,117i5,          7,South
Sunday   ,  512,   15102,   85016,16:37   ,Northgate Station,nortc,          8,South
Sunday   ,  512,   15115,   85011,19:44   ,Everett Station,evtst,          1,South
Sunday   ,  512,   15115,   85011,19:53   ,South Everett Freeway Station,sefs,          2,South
Sunday   ,  512,   15115,   85011,20:01   ,Ash Way Park & Ride,awypr,          3,South
Sunday   ,  512,   15115,   85011,20:08   ,Lynnwood Transit Center,lynntc,          4,South
Sunday   ,  512,   15115,   85011,20:12   ,Mountlake Terrace Freeway Station,mltfs,          5,South
Sunday   ,  512,   15115,   85011,20:15   ,I-5 & NE 195th St,195i5,          6,South
Sunday   ,  512,   15115,   85011,20:20   ,I-5 & NE 117th St,117i5,          7,South
Sunday   ,  512,   15115,   85011,20:27   ,Northgate Station,nortc,          8,South
Sunday   ,  512,   15111,   85008,18:23   ,Everett Station,evtst,          1,South
Sunday   ,  512,   15111,   85008,18:32   ,South Everett Freeway Station,sefs,          2,South
Sunday   ,  512,   15111,   85008,18:40   ,Ash Way Park & Ride,awypr,          3,South
Sunday   ,  512,   15111,   85008,18:47   ,Lynnwood Transit Center,lynntc,          4,South
Sunday   ,  512,   15111,   85008,18:51   ,Mountlake Terrace Freeway Station,mltfs,          5,South
Sunday   ,  512,   15111,   85008,18:54   ,I-5 & NE 195th St,195i5,          6,South
Sunday   ,  512,   15111,   85008,18:59   ,I-5 & NE 117th St,117i5,          7,South
Sunday   ,  512,   15111,   85008,19:07   ,Northgate Station,nortc,          8,South
Sunday   ,  512,   15121,   85017,21:52   ,Everett Station,evtst,          1,South
Sunday   ,  512,   15121,   85017,22:00   ,South Everett Freeway Station,sefs,          2,South
Sunday   ,  512,   15121,   85017,22:08   ,Ash Way Park & Ride,awypr,          3,South
Sunday   ,  512,   15121,   85017,22:15   ,Lynnwood Transit Center,lynntc,          4,South
Sunday   ,  512,   15121,   85017,22:19   ,Mountlake Terrace Freeway Station,mltfs,          5,South
Sunday   ,  512,   15121,   85017,22:22   ,I-5 & NE 195th St,195i5,          6,South
Sunday   ,  512,   15121,   85017,22:27   ,I-5 & NE 117th St,117i5,          7,South
Sunday   ,  512,   15121,   85017,22:33   ,Northgate Station,nortc,          8,South
Sunday   ,,   85003,   85001, 7:08   ,,3NG100,          1,
Sunday   ,,   85003,   85001, 7:11   ,Northgate Station,nortc,          2,
Sunday   ,  512,   15093,   85006,13:01   ,Everett Station,evtst,          1,South
Sunday   ,  512,   15093,   85006,13:10   ,South Everett Freeway Station,sefs,          2,South
Sunday   ,  512,   15093,   85006,13:18   ,Ash Way Park & Ride,awypr,          3,South
Sunday   ,  512,   15093,   85006,13:25   ,Lynnwood Transit Center,lynntc,          4,South
Sunday   ,  512,   15093,   85006,13:30   ,Mountlake Terrace Freeway Station,mltfs,          5,South
Sunday   ,  512,   15093,   85006,13:33   ,I-5 & NE 195th St,195i5,          6,South
Sunday   ,  512,   15093,   85006,13:38   ,I-5 & NE 117th St,117i5,          7,South
Sunday   ,  512,   15093,   85006,13:47   ,Northgate Station,nortc,          8,South
Sunday   ,  512,   15094,   85009,13:21   ,Everett Station,evtst,          1,South
Sunday   ,  512,   15094,   85009,13:30   ,South Everett Freeway Station,sefs,          2,South
Sunday   ,  512,   15094,   85009,13:38   ,Ash Way Park & Ride,awypr,          3,South
Sunday   ,  512,   15094,   85009,13:45   ,Lynnwood Transit Center,lynntc,          4,South
Sunday   ,  512,   15094,   85009,13:50   ,Mountlake Terrace Freeway Station,mltfs,          5,South
Sunday   ,  512,   15094,   85009,13:53   ,I-5 & NE 195th St,195i5,          6,South
Sunday   ,  512,   15094,   85009,13:58   ,I-5 & NE 117th St,117i5,          7,South
Sunday   ,  512,   15094,   85009,14:07   ,Northgate Station,nortc,          8,South
Sunday   ,  512,   15096,   85007,14:00   ,Everett Station,evtst,          1,South
Sunday   ,  512,   15096,   85007,14:09   ,South Everett Freeway Station,sefs,          2,South
Sunday   ,  512,   15096,   85007,14:17   ,Ash Way Park & Ride,awypr,          3,South
Sunday   ,  512,   15096,   85007,14:24   ,Lynnwood Transit Center,lynntc,          4,South
Sunday   ,  512,   15096,   85007,14:29   ,Mountlake Terrace Freeway Station,mltfs,          5,South
Sunday   ,  512,   15096,   85007,14:32   ,I-5 & NE 195th St,195i5,          6,South
Sunday   ,  512,   15096,   85007,14:37   ,I-5 & NE 117th St,117i5,          7,South
Sunday   ,  512,   15096,   85007,14:47   ,Northgate Station,nortc,          8,South
Sunday   ,  512,   15100,   85006,15:21   ,Everett Station,evtst,          1,South
Sunday   ,  512,   15100,   85006,15:30   ,South Everett Freeway Station,sefs,          2,South
Sunday   ,  512,   15100,   85006,15:38   ,Ash Way Park & Ride,awypr,          3,South
Sunday   ,  512,   15100,   85006,15:45   ,Lynnwood Transit Center,lynntc,          4,South
Sunday   ,  512,   15100,   85006,15:49   ,Mountlake Terrace Freeway Station,mltfs,          5,South
Sunday   ,  512,   15100,   85006,15:52   ,I-5 & NE 195th St,195i5,          6,South
Sunday   ,  512,   15100,   85006,15:57   ,I-5 & NE 117th St,117i5,          7,South
Sunday   ,  512,   15100,   85006,16:07   ,Northgate Station,nortc,          8,South
Sunday   ,  512,   15095,   85008,13:41   ,Everett Station,evtst,          1,South
Sunday   ,  512,   15095,   85008,13:50   ,South Everett Freeway Station,sefs,          2,South
Sunday   ,  512,   15095,   85008,13:58   ,Ash Way Park & Ride,awypr,          3,South
Sunday   ,  512,   15095,   85008,14:05   ,Lynnwood Transit Center,lynntc,          4,South
Sunday   ,  512,   15095,   85008,14:10   ,Mountlake Terrace Freeway Station,mltfs,          5,South
Sunday   ,  512,   15095,   85008,14:13   ,I-5 & NE 195th St,195i5,          6,South
Sunday   ,  512,   15095,   85008,14:18   ,I-5 & NE 117th St,117i5,          7,South
Sunday   ,  512,   15095,   85008,14:27   ,Northgate Station,nortc,          8,South
Sunday   ,  512,   15099,   85014,15:00   ,Everett Station,evtst,          1,South
Sunday   ,  512,   15099,   85014,15:09   ,South Everett Freeway Station,sefs,          2,South
Sunday   ,  512,   15099,   85014,15:17   ,Ash Way Park & Ride,awypr,          3,South
Sunday   ,  512,   15099,   85014,15:24   ,Lynnwood Transit Center,lynntc,          4,South
Sunday   ,  512,   15099,   85014,15:29   ,Mountlake Terrace Freeway Station,mltfs,          5,South
Sunday   ,  512,   15099,   85014,15:32   ,I-5 & NE 195th St,195i5,          6,South
Sunday   ,  512,   15099,   85014,15:37   ,I-5 & NE 117th St,117i5,          7,South
Sunday   ,  512,   15099,   85014,15:47   ,Northgate Station,nortc,          8,South
Sunday   ,  512,   15103,   85017,16:06   ,Everett Station,evtst,          1,South
Sunday   ,  512,   15103,   85017,16:15   ,South Everett Freeway Station,sefs,          2,South
Sunday   ,  512,   15103,   85017,16:23   ,Ash Way Park & Ride,awypr,          3,South
Sunday   ,  512,   15103,   85017,16:30   ,Lynnwood Transit Center,lynntc,          4,South
Sunday   ,  512,   15103,   85017,16:34   ,Mountlake Terrace Freeway Station,mltfs,          5,South
Sunday   ,  512,   15103,   85017,16:37   ,I-5 & NE 195th St,195i5,          6,South
Sunday   ,  512,   15103,   85017,16:42   ,I-5 & NE 117th St,117i5,          7,South
Sunday   ,  512,   15103,   85017,16:52   ,Northgate Station,nortc,          8,South
Sunday   ,  512,   15104,   85008,16:21   ,Everett Station,evtst,          1,South
Sunday   ,  512,   15104,   85008,16:30   ,South Everett Freeway Station,sefs,          2,South
Sunday   ,  512,   15104,   85008,16:38   ,Ash Way Park & Ride,awypr,          3,South
Sunday   ,  512,   15104,   85008,16:45   ,Lynnwood Transit Center,lynntc,          4,South
Sunday   ,  512,   15104,   85008,16:49   ,Mountlake Terrace Freeway Station,mltfs,          5,South
Sunday   ,  512,   15104,   85008,16:52   ,I-5 & NE 195th St,195i5,          6,South
Sunday   ,  512,   15104,   85008,16:57   ,I-5 & NE 117th St,117i5,          7,South
Sunday   ,  512,   15104,   85008,17:07   ,Northgate Station,nortc,          8,South
Sunday   ,  512,   15098,   85013,14:40   ,Everett Station,evtst,          1,South
Sunday   ,  512,   15098,   85013,14:49   ,South Everett Freeway Station,sefs,          2,South
Sunday   ,  512,   15098,   85013,14:57   ,Ash Way Park & Ride,awypr,          3,South
Sunday   ,  512,   15098,   85013,15:04   ,Lynnwood Transit Center,lynntc,          4,South
Sunday   ,  512,   15098,   85013,15:09   ,Mountlake Terrace Freeway Station,mltfs,          5,South
Sunday   ,  512,   15098,   85013,15:12   ,I-5 & NE 195th St,195i5,          6,South
Sunday   ,  512,   15098,   85013,15:17   ,I-5 & NE 117th St,117i5,          7,South
Sunday   ,  512,   15098,   85013,15:27   ,Northgate Station,nortc,          8,South
Sunday   ,  512,   15107,   85013,17:07   ,Everett Station,evtst,          1,South
Sunday   ,  512,   15107,   85013,17:16   ,South Everett Freeway Station,sefs,          2,South
Sunday   ,  512,   15107,   85013,17:24   ,Ash Way Park & Ride,awypr,          3,South
Sunday   ,  512,   15107,   85013,17:31   ,Lynnwood Transit Center,lynntc,          4,South
Sunday   ,  512,   15107,   85013,17:35   ,Mountlake Terrace Freeway Station,mltfs,          5,South
Sunday   ,  512,   15107,   85013,17:38   ,I-5 & NE 195th St,195i5,          6,South
Sunday   ,  512,   15107,   85013,17:43   ,I-5 & NE 117th St,117i5,          7,South
Sunday   ,  512,   15107,   85013,17:52   ,Northgate Station,nortc,          8,South
Sunday   ,  512,   15108,   85007,17:22   ,Everett Station,evtst,          1,South
Sunday   ,  512,   15108,   85007,17:31   ,South Everett Freeway Station,sefs,          2,South
Sunday   ,  512,   15108,   85007,17:39   ,Ash Way Park & Ride,awypr,          3,South
Sunday   ,  512,   15108,   85007,17:46   ,Lynnwood Transit Center,lynntc,          4,South
Sunday   ,  512,   15108,   85007,17:50   ,Mountlake Terrace Freeway Station,mltfs,          5,South
Sunday   ,  512,   15108,   85007,17:53   ,I-5 & NE 195th St,195i5,          6,South
Sunday   ,  512,   15108,   85007,17:58   ,I-5 & NE 117th St,117i5,          7,South
Sunday   ,  512,   15108,   85007,18:07   ,Northgate Station,nortc,          8,South
Sunday   ,  512,   15097,   85011,14:20   ,Everett Station,evtst,          1,South
Sunday   ,  512,   15097,   85011,14:29   ,South Everett Freeway Station,sefs,          2,South
Sunday   ,  512,   15097,   85011,14:37   ,Ash Way Park & Ride,awypr,          3,South
Sunday   ,  512,   15097,   85011,14:44   ,Lynnwood Transit Center,lynntc,          4,South
Sunday   ,  512,   15097,   85011,14:49   ,Mountlake Terrace Freeway Station,mltfs,          5,South
Sunday   ,  512,   15097,   85011,14:52   ,I-5 & NE 195th St,195i5,          6,South
Sunday   ,  512,   15097,   85011,14:57   ,I-5 & NE 117th St,117i5,          7,South
Sunday   ,  512,   15097,   85011,15:07   ,Northgate Station,nortc,          8,South
Sunday   ,  512,   15105,   85010,16:37   ,Everett Station,evtst,          1,South
Sunday   ,  512,   15105,   85010,16:46   ,South Everett Freeway Station,sefs,          2,South
Sunday   ,  512,   15105,   85010,16:54   ,Ash Way Park & Ride,awypr,          3,South
Sunday   ,  512,   15105,   85010,17:01   ,Lynnwood Transit Center,lynntc,          4,South
Sunday   ,  512,   15105,   85010,17:05   ,Mountlake Terrace Freeway Station,mltfs,          5,South
Sunday   ,  512,   15105,   85010,17:08   ,I-5 & NE 195th St,195i5,          6,South
Sunday   ,  512,   15105,   85010,17:13   ,I-5 & NE 117th St,117i5,          7,South
Sunday   ,  512,   15105,   85010,17:22   ,Northgate Station,nortc,          8,South
Sunday   ,  512,   15109,   85011,17:43   ,Everett Station,evtst,          1,South
Sunday   ,  512,   15109,   85011,17:52   ,South Everett Freeway Station,sefs,          2,South
Sunday   ,  512,   15109,   85011,18:00   ,Ash Way Park & Ride,awypr,          3,South
Sunday   ,  512,   15109,   85011,18:07   ,Lynnwood Transit Center,lynntc,          4,South
Sunday   ,  512,   15109,   85011,18:11   ,Mountlake Terrace Freeway Station,mltfs,          5,South
Sunday   ,  512,   15109,   85011,18:14   ,I-5 & NE 195th St,195i5,          6,South
Sunday   ,  512,   15109,   85011,18:19   ,I-5 & NE 117th St,117i5,          7,South
Sunday   ,  512,   15109,   85011,18:27   ,Northgate Station,nortc,          8,South
Sunday   ,  512,   15101,   85012,15:36   ,Everett Station,evtst,          1,South
Sunday   ,  512,   15101,   85012,15:45   ,South Everett Freeway Station,sefs,          2,South
Sunday   ,  512,   15101,   85012,15:53   ,Ash Way Park & Ride,awypr,          3,South
Sunday   ,  512,   15101,   85012,16:00   ,Lynnwood Transit Center,lynntc,          4,South
Sunday   ,  512,   15101,   85012,16:04   ,Mountlake Terrace Freeway Station,mltfs,          5,South
Sunday   ,  512,   15101,   85012,16:07   ,I-5 & NE 195th St,195i5,          6,South
Sunday   ,  512,   15101,   85012,16:12   ,I-5 & NE 117th St,117i5,          7,South
Sunday   ,  512,   15101,   85012,16:22   ,Northgate Station,nortc,          8,South
Sunday   ,  512,   15110,   85012,18:03   ,Everett Station,evtst,          1,South
Sunday   ,  512,   15110,   85012,18:12   ,South Everett Freeway Station,sefs,          2,South
Sunday   ,  512,   15110,   85012,18:20   ,Ash Way Park & Ride,awypr,          3,South
Sunday   ,  512,   15110,   85012,18:27   ,Lynnwood Transit Center,lynntc,          4,South
Sunday   ,  512,   15110,   85012,18:31   ,Mountlake Terrace Freeway Station,mltfs,          5,South
Sunday   ,  512,   15110,   85012,18:34   ,I-5 & NE 195th St,195i5,          6,South
Sunday   ,  512,   15110,   85012,18:39   ,I-5 & NE 117th St,117i5,          7,South
Sunday   ,  512,   15110,   85012,18:47   ,Northgate Station,nortc,          8,South
Sunday   ,  512,   15114,   85017,19:24   ,Everett Station,evtst,          1,South
Sunday   ,  512,   15114,   85017,19:33   ,South Everett Freeway Station,sefs,          2,South
Sunday   ,  512,   15114,   85017,19:41   ,Ash Way Park & Ride,awypr,          3,South
Sunday   ,  512,   15114,   85017,19:48   ,Lynnwood Transit Center,lynntc,          4,South
Sunday   ,  512,   15114,   85017,19:52   ,Mountlake Terrace Freeway Station,mltfs,          5,South
Sunday   ,  512,   15114,   85017,19:55   ,I-5 & NE 195th St,195i5,          6,South
Sunday   ,  512,   15114,   85017,20:00   ,I-5 & NE 117th St,117i5,          7,South
Sunday   ,  512,   15114,   85017,20:07   ,Northgate Station,nortc,          8,South
Sunday   ,  512,   15092,   85010,12:41   ,Everett Station,evtst,          1,South
Sunday   ,  512,   15092,   85010,12:50   ,South Everett Freeway Station,sefs,          2,South
Sunday   ,  512,   15092,   85010,12:58   ,Ash Way Park & Ride,awypr,          3,South
Sunday   ,  512,   15092,   85010,13:05   ,Lynnwood Transit Center,lynntc,          4,South
Sunday   ,  512,   15092,   85010,13:10   ,Mountlake Terrace Freeway Station,mltfs,          5,South
Sunday   ,  512,   15092,   85010,13:13   ,I-5 & NE 195th St,195i5,          6,South
Sunday   ,  512,   15092,   85010,13:18   ,I-5 & NE 117th St,117i5,          7,South
Sunday   ,  512,   15092,   85010,13:27   ,Northgate Station,nortc,          8,South
Sunday   ,,   85032,   85017,16:57   ,,3NG100,          1,
Sunday   ,,   85032,   85017,16:59   ,Northgate Station,nortc,          2,
Sunday   ,,   85054,   85017,22:38   ,,3NG100,          1,
Sunday   ,,   85054,   85017,22:39   ,Northgate Station,nortc,          2,
Sunday   ,,   85029,   85012,16:27   ,,3NG100,          1,
Sunday   ,,   85029,   85012,16:29   ,Northgate Station,nortc,          2,
Sunday   ,,   85212,   85017,22:33   ,Northgate Station,nortc,          1,
Sunday   ,,   85212,   85017,22:36   ,,3NG100,          2,
Sunday   ,,   85194,   85017,16:52   ,Northgate Station,nortc,          1,
Sunday   ,,   85194,   85017,16:56   ,,3NG100,          2,
Sunday   ,,   85062,   85005, 7:08   ,Kasch Park Base,base2,          1,
Sunday   ,,   85062,   85005, 7:25   ,Everett Station,evtst,          2,
Sunday   ,,   85072,   85015,14:44   ,Kasch Park Base,base2,          1,
Sunday   ,,   85072,   85015,15:19   ,Northgate Station,nortc,          2,
Sunday   ,,   85065,   85008,11:14   ,Kasch Park Base,base2,          1,
Sunday   ,,   85065,   85008,11:49   ,Northgate Station,nortc,          2,
Sunday   ,,   85085,   85005,11:31   ,Everett Station,evtst,          1,
Sunday   ,,   85085,   85005,11:46   ,Kasch Park Base,base2,          2,
Sunday   ,,   85092,   85004,14:11   ,Everett Station,evtst,          1,
Sunday   ,,   85092,   85004,14:26   ,Kasch Park Base,base2,          2,
Sunday   ,,   85181,   85003,12:47   ,Northgate Station,nortc,          1,
Sunday   ,,   85181,   85003,13:17   ,Kasch Park Base,base2,          2,
Sunday   ,,   85131,   85017,25:18   ,Everett Station,evtst,          1,
Sunday   ,,   85131,   85017,25:33   ,Kasch Park Base,base2,          2,
Sunday   ,,   85125,   85015,22:39   ,Everett Station,evtst,          1,
Sunday   ,,   85125,   85015,22:54   ,Kasch Park Base,base2,          2,
Sunday   ,,   85060,   85003, 5:15   ,Kasch Park Base,base2,          1,
Sunday   ,,   85060,   85003, 5:32   ,Everett Station,evtst,          2,
Sunday   ,,   85058,   85001, 4:25   ,Kasch Park Base,base2,          1,
Sunday   ,,   85058,   85001, 4:42   ,Everett Station,evtst,          2,
Sunday   ,,   85187,   85007,14:47   ,Northgate Station,nortc,          1,
Sunday   ,,   85187,   85007,14:51   ,,3NG100,          2,
Sunday   ,,   85046,   85016,19:56   ,,3NG100,          1,
Sunday   ,,   85046,   85016,19:59   ,Northgate Station,nortc,          2,
Sunday   ,,   85116,   85016,19:21   ,Everett Station,evtst,          1,
Sunday   ,,   85116,   85016,19:52   ,,3NG100,          2,
Sunday   ,,   85055,   85018,22:56   ,,3NG100,          1,
Sunday   ,,   85055,   85018,22:59   ,Northgate Station,nortc,          2,
Sunday   ,,   85073,   85016,15:34   ,Kasch Park Base,base2,          1,
Sunday   ,,   85073,   85016,15:51   ,Everett Station,evtst,          2,
Sunday   ,,   85123,   85012,21:39   ,Everett Station,evtst,          1,
Sunday   ,,   85123,   85012,21:54   ,Kasch Park Base,base2,          2,
Sunday   ,,   85028,   85009,16:06   ,,3NG100,          1,
Sunday   ,,   85028,   85009,16:09   ,Northgate Station,nortc,          2,
Sunday   ,,   85132,   85018,25:47   ,Everett Station,evtst,          1,
Sunday   ,,   85132,   85018,26:02   ,Kasch Park Base,base2,          2,
Sunday   ,,   85124,   85018,22:19   ,Everett Station,evtst,          1,
Sunday   ,,   85124,   85018,22:50   ,,3NG100,          2,
Sunday   ,,   85022,   85007,14:56   ,,3NG100,          1,
Sunday   ,,   85022,   85007,14:59   ,Northgate Station,nortc,          2,
Sunday   ,,   85202,   85008,19:07   ,Northgate Station,nortc,          1,
Sunday   ,,   85202,   85008,19:37   ,Kasch Park Base,base2,          2,
Sunday   ,,   85069,   85012,13:54   ,Kasch Park Base,base2,          1,
Sunday   ,,   85069,   85012,14:29   ,Northgate Station,nortc,          2,
Sunday   ,,   85061,   85004, 5:39   ,Kasch Park Base,base2,          1,
Sunday   ,,   85061,   85004, 5:56   ,Everett Station,evtst,          2,
Sunday   ,,   85088,   85001,12:51   ,Everett Station,evtst,          1,
Sunday   ,,   85088,   85001,13:06   ,Kasch Park Base,base2,          2,
Sunday   ,,   85096,   85009,15:32   ,Everett Station,evtst,          1,
Sunday   ,,   85096,   85009,16:03   ,,3NG100,          2,
Sunday   ,,   85203,   85009,19:27   ,Northgate Station,nortc,          1,
Sunday   ,,   85203,   85009,19:57   ,Kasch Park Base,base2,          2,
Sunday   ,,   85196,   85010,17:22   ,Northgate Station,nortc,          1,
Sunday   ,,   85196,   85010,17:26   ,,3NG100,          2,
Sunday   ,,   85037,   85010,17:46   ,,3NG100,          1,
Sunday   ,,   85037,   85010,17:49   ,Northgate Station,nortc,          2,
Sunday   ,,   85128,   85018,23:38   ,Everett Station,evtst,          1,
Sunday   ,,   85128,   85018,24:15   ,Stadium Station,9977,          2,
Sunday   ,,   85051,   85018,21:36   ,,3NG100,          1,
Sunday   ,,   85051,   85018,21:39   ,Northgate Station,nortc,          2,
Sunday   ,,   85075,   85018,16:35   ,Kasch Park Base,base2,          1,
Sunday   ,,   85075,   85018,16:52   ,Everett Station,evtst,          2,
Sunday   ,,   85074,   85017,15:49   ,Kasch Park Base,base2,          1,
Sunday   ,,   85074,   85017,16:06   ,Everett Station,evtst,          2,
Sunday   ,,   85129,   85014,24:08   ,Everett Station,evtst,          1,
Sunday   ,,   85129,   85014,24:23   ,Kasch Park Base,base2,          2,
Sunday   ,,   85066,   85009,11:24   ,Kasch Park Base,base2,          1,
Sunday   ,,   85066,   85009,11:41   ,Everett Station,evtst,          2,
Sunday   ,,   85071,   85014,14:43   ,Kasch Park Base,base2,          1,
Sunday   ,,   85071,   85014,15:00   ,Everett Station,evtst,          2,
Sunday   ,,   85130,   85016,24:42   ,Everett Station,evtst,          1,
Sunday   ,,   85130,   85016,24:57   ,Kasch Park Base,base2,          2,
Sunday   ,,   85122,   85011,21:20   ,Everett Station,evtst,          1,
Sunday   ,,   85122,   85011,21:35   ,Kasch Park Base,base2,          2,
Sunday   ,,   85179,   85002,12:07   ,Northgate Station,nortc,          1,
Sunday   ,,   85179,   85002,12:10   ,,3NG100,          2,
Sunday   ,,   85139,   85001,10:35   ,,hillav,          1,
Sunday   ,,   85139,   85001,10:42   ,Everett Station,evtst,          2,
Sunday   ,,   85089,   85002,13:11   ,Everett Station,evtst,          1,
Sunday   ,,   85089,   85002,13:26   ,Kasch Park Base,base2,          2,
Sunday   ,,   85200,   85011,18:27   ,Northgate Station,nortc,          1,
Sunday   ,,   85200,   85011,18:30   ,,3NG100,          2,
Sunday   ,,   85201,   85012,18:47   ,Northgate Station,nortc,          1,
Sunday   ,,   85201,   85012,18:50   ,,3NG100,          2,
Sunday   ,,   85077,   85002, 8:14   ,Everett Station,evtst,          1,
Sunday   ,,   85077,   85002, 8:17   ,,hillav,          2,
Sunday   ,,   85081,   85001,10:10   ,Everett Station,evtst,          1,
Sunday   ,,   85081,   85001,10:13   ,,hillav,          2,
Sunday   ,,   85143,   85006,12:54   ,,hillav,          1,
Sunday   ,,   85143,   85006,13:01   ,Everett Station,evtst,          2,
Sunday   ,,   85178,   85007,11:47   ,Northgate Station,nortc,          1,
Sunday   ,,   85178,   85007,11:50   ,,3NG100,          2,
Sunday   ,,   85015,   85001,12:06   ,,3NG100,          1,
Sunday   ,,   85015,   85001,12:09   ,Northgate Station,nortc,          2,
Sunday   ,,   85135,   85002, 8:57   ,,hillav,          1,
Sunday   ,,   85135,   85002, 9:04   ,Everett Station,evtst,          2,
Sunday   ,,   85142,   85003,11:54   ,,hillav,          1,
Sunday   ,,   85142,   85003,12:01   ,Everett Station,evtst,          2,
Sunday   ,,   85083,   85002,10:51   ,Everett Station,evtst,          1,
Sunday   ,,   85083,   85002,10:54   ,,hillav,          2,
Sunday   ,,   85076,   85004, 7:21   ,Everett Station,evtst,          1,
Sunday   ,,   85076,   85004, 7:23   ,,hillav,          2,
Sunday   ,,   85068,   85011,12:34   ,Kasch Park Base,base2,          1,
Sunday   ,,   85068,   85011,13:09   ,Northgate Station,nortc,          2,
Sunday   ,,   85134,   85004, 7:38   ,,hillav,          1,
Sunday   ,,   85134,   85004, 7:45   ,Everett Station,evtst,          2,
Sunday   ,,   85133,   85001, 6:13   ,,hillav,          1,
Sunday   ,,   85133,   85001, 6:20   ,Everett Station,evtst,          2,
Sunday   ,,   85185,   85009,14:07   ,Northgate Station,nortc,          1,
Sunday   ,,   85185,   85009,14:10   ,,3NG100,          2,
Sunday   ,,   85177,   85001,11:27   ,Northgate Station,nortc,          1,
Sunday   ,,   85177,   85001,11:30   ,,3NG100,          2,
Sunday   ,,   85044,   85012,19:06   ,,3NG100,          1,
Sunday   ,,   85044,   85012,19:09   ,Northgate Station,nortc,          2,
Sunday   ,,   85162,   85001, 5:23   ,Northgate Station,nortc,          1,
Sunday   ,,   85162,   85001, 5:49   ,,hillav,          2,
Sunday   ,,   85141,   85002,11:14   ,,hillav,          1,
Sunday   ,,   85141,   85002,11:21   ,Everett Station,evtst,          2,
Sunday   ,,   85017,   85007,12:46   ,,3NG100,          1,
Sunday   ,,   85017,   85007,12:49   ,Northgate Station,nortc,          2,
Sunday   ,,   85078,   85003, 8:39   ,Everett Station,evtst,          1,
Sunday   ,,   85078,   85003, 8:41   ,,hillav,          2,
Sunday   ,,   85086,   85006,11:51   ,Everett Station,evtst,          1,
Sunday   ,,   85086,   85006,11:53   ,,hillav,          2,
Sunday   ,,   85059,   85002, 4:51   ,Kasch Park Base,base2,          1,
Sunday   ,,   85059,   85002, 5:08   ,Everett Station,evtst,          2,
Sunday   ,,   85064,   85007, 8:28   ,Kasch Park Base,base2,          1,
Sunday   ,,   85064,   85007, 8:45   ,Everett Station,evtst,          2,
Sunday   ,,   85023,   85008,15:06   ,,3NG100,          1,
Sunday   ,,   85023,   85008,15:09   ,Northgate Station,nortc,          2,
Sunday   ,,   85042,   85011,18:46   ,,3NG100,          1,
Sunday   ,,   85042,   85011,18:49   ,Northgate Station,nortc,          2,
Sunday   ,,   85067,   85010,12:24   ,Kasch Park Base,base2,          1,
Sunday   ,,   85067,   85010,12:41   ,Everett Station,evtst,          2,
Sunday   ,,   85204,   85010,19:47   ,Northgate Station,nortc,          1,
Sunday   ,,   85204,   85010,20:17   ,Kasch Park Base,base2,          2,
Sunday   ,,   85136,   85003, 9:17   ,,hillav,          1,
Sunday   ,,   85136,   85003, 9:24   ,Everett Station,evtst,          2,
Sunday   ,,   85084,   85003,11:11   ,Everett Station,evtst,          1,
Sunday   ,,   85084,   85003,11:13   ,,hillav,          2,
Sunday   ,,   85016,   85002,12:26   ,,3NG100,          1,
Sunday   ,,   85016,   85002,12:29   ,Northgate Station,nortc,          2,
Sunday   ,,   85199,   85007,18:07   ,Northgate Station,nortc,          1,
Sunday   ,,   85199,   85007,18:37   ,Kasch Park Base,base2,          2,
Sunday   ,,   85186,   85008,14:27   ,Northgate Station,nortc,          1,
Sunday   ,,   85186,   85008,14:30   ,,3NG100,          2,
Sunday   ,,   85021,   85009,14:46   ,,3NG100,          1,
Sunday   ,,   85021,   85009,14:49   ,Northgate Station,nortc,          2,
Sunday   ,  512,   15003,   85002, 5:55   ,Northgate Station,nortc,          1,North
Sunday   ,  512,   15003,   85002, 5:58   ,I-5 & NE 117th St,117i5,          2,North
Sunday   ,  512,   15003,   85002, 6:01   ,I-5 & NE 195th St,195i5,          3,North
Sunday   ,  512,   15003,   85002, 6:02   ,Mountlake Terrace Freeway Station,mltfs,          4,North
Sunday   ,  512,   15003,   85002, 6:07   ,Lynnwood Transit Center,lynntc,          5,North
Sunday   ,  512,   15003,   85002, 6:14   ,Ash Way Park & Ride,awypr,          6,North
Sunday   ,  512,   15003,   85002, 6:21   ,South Everett Freeway Station,sefs,          7,North
Sunday   ,  512,   15003,   85002, 6:33   ,Everett Station,evtst,          8,North
